elevation,mindate,maxdate,latitude,name,datacoverage,id,elevationUnit,longitude
,2007-11-01,2011-02-06,30.2902,"ORANGE BEACH 4.9 E, AL US",0.902,GHCND:US1ALBW0005,,-87.5099
27.1,2007-11-13,2020-09-15,30.403004,"FOLEY 0.5 ESE, AL US",0.8923,GHCND:US1ALBW0009,METERS,-87.676584
,2007-12-27,2014-05-01,30.2968,"ORANGE BEACH 3.0 ENE, AL US",0.811,GHCND:US1ALBW0011,,-87.5425
1.2,2008-01-16,2012-03-04,30.3002,"ORANGE BEACH 2.5 ENE, AL US",0.1497,GHCND:US1ALBW0015,METERS,-87.5539
34.1,2007-12-29,2011-02-01,30.47025,"SUMMERDALE 2.5 ESE, AL US",0.7719,GHCND:US1ALBW0017,METERS,-87.660717
24.1,2008-01-07,2011-03-08,30.38759,"ELBERTA 8.2 ESE, AL US",0.9404,GHCND:US1ALBW0019,METERS,-87.466591
21.0,2008-01-19,2009-06-03,30.390827,"ELBERTA 1.8 SSW, AL US",0.6175,GHCND:US1ALBW0023,METERS,-87.616697
1.8,2008-01-10,2019-04-19,30.303182,"ORANGE BEACH 2.1 NE, AL US",0.9728,GHCND:US1ALBW0027,METERS,-87.562444
20.1,2008-01-01,2026-04-10,30.378889,"FOLEY 2.0 SSW, AL US",0.9542,GHCND:US1ALBW0031,METERS,-87.6975
10.1,2008-02-06,2014-05-14,30.286392,"ORANGE BEACH 1.3 E, AL US",0.4218,GHCND:US1ALBW0035,METERS,-87.568838
2.1,2008-06-29,2020-09-17,30.3718,"ELBERTA 3.1 SSW, AL US",0.9171,GHCND:US1ALBW0053,METERS,-87.6195
14.3,2016-02-14,2018-12-24,30.36446,"FOLEY 4.5 SE, AL US",0.9359,GHCND:US1ALBW0074,METERS,-87.62684
20.1,2019-03-22,2026-04-08,30.416134,"ELBERTA 0.3 NE, AL US",0.5837,GHCND:US1ALBW0089,METERS,-87.596544
11.6,2019-12-14,2025-06-30,30.35059,"FOLEY 4.9 SE, AL US",0.1935,GHCND:US1ALBW0095,METERS,-87.63238
1.8,2019-06-24,2026-04-09,30.357595,"ELBERTA 3.9 S, AL US",0.9343,GHCND:US1ALBW0096,METERS,-87.610816
7.0,2020-12-02,2026-04-09,30.263644,"NATURE CENTER GULF SHORES 3.6 E, AL US",0.6614,GHCND:US1ALBW0103,METERS,-87.642108
10.1,2020-12-02,2026-04-10,30.266818,"LEARNING CAMPUS GULF SHORES 1.3 E, AL US",0.933,GHCND:US1ALBW0104,METERS,-87.680385
9.1,2020-11-22,2026-04-10,30.306448,"GULF SHORES 2.6 NNE, AL US",0.9593,GHCND:US1ALBW0105,METERS,-87.692399
5.2,2022-03-15,2026-04-09,30.284648,"ORANGE BEACH 0.5 E, AL US",0.5783,GHCND:US1ALBW0113,METERS,-87.582703
16.8,2023-07-03,2026-04-10,30.348962,"FOLEY 5.3 SE, AL US",0.9181,GHCND:US1ALBW0126,METERS,-87.624001
41.5,2024-05-28,2025-08-15,30.556628,"ROBERTSDALE 5.5 E, AL US",0.7258,GHCND:US1ALBW0133,METERS,-87.615839
21.6,2024-07-02,2026-04-06,30.393875,"LILLIAN 3.6 WSW, AL US",0.9953,GHCND:US1ALBW0135,METERS,-87.491531
96.0,2016-12-08,2021-11-22,31.272486,"CASTLEBERRY 5.6 WSW, AL US",0.8095,GHCND:US1ALCC0001,METERS,-87.118372
88.7,2017-03-29,2021-09-16,31.327098,"REPTON 5.7 S, AL US",0.3625,GHCND:US1ALCC0002,METERS,-87.243067
127.1,2007-11-15,2011-04-07,31.4278,"NEW BROCKTON 4.2 NE, AL US",0.6855,GHCND:US1ALCF0003,METERS,-85.88
105.2,2009-12-25,2018-09-13,31.33608,"ENTERPRISE 1.5 WNW, AL US",0.9256,GHCND:US1ALCF0004,METERS,-85.87092
114.0,2019-07-01,2026-04-09,31.4008,"RED LEVEL 0.3 SW, AL US",0.9968,GHCND:US1ALCV0013,METERS,-86.6121
93.9,2007-10-16,2015-04-23,31.47594,"OZARK 2.7 NNW, AL US",0.9115,GHCND:US1ALDL0001,METERS,-85.661436
111.9,2008-11-11,2010-03-11,31.42538,"OZARK 1.9 WSW, AL US",0.3477,GHCND:US1ALDL0006,METERS,-85.67675
104.2,2012-07-31,2021-09-15,31.303874,"ENTERPRISE 3.8 ESE, AL US",0.8383,GHCND:US1ALDL0011,METERS,-85.789614
52.1,2008-01-11,2025-01-28,31.056577,"POLLARD 2.4 N, AL US",0.8332,GHCND:US1ALES0001,METERS,-87.166847
96.3,2017-11-02,2021-06-22,31.092286,"ATMORE 6.3 NW, AL US",0.3755,GHCND:US1ALES0003,METERS,-87.563106
69.2,2022-05-26,2026-04-10,31.1953574,"BREWTON 5.8 NNE, AL US",0.9576,GHCND:US1ALES0004,METERS,-87.04674
60.7,2017-08-11,2021-05-27,31.117179,"SAMSON 0.4 NNW, AL US",0.2453,GHCND:US1ALGV0005,METERS,-86.050066
84.7,2022-06-23,2024-11-20,31.093359,"HARTFORD 0.9 SSW, AL US",0.3141,GHCND:US1ALGV0006,METERS,-85.696228
,2007-10-21,2019-11-12,31.242338,"DOTHAN 2.6 SW, AL US",0.1085,GHCND:US1ALHS0003,,-85.436431
91.1,2007-11-01,2014-01-28,31.217215,"DOTHAN 1.5 SSW, AL US",0.6409,GHCND:US1ALHS0004,METERS,-85.4172
96.0,2007-11-15,2017-01-23,31.226143,"CLAYHATCHEE 5.9 E, AL US",0.9961,GHCND:US1ALHS0006,METERS,-85.614283
89.0,2008-07-31,2010-02-21,31.20882,"DOTHAN 5.0 WSW, AL US",0.7181,GHCND:US1ALHS0009,METERS,-85.48312
79.9,2008-09-02,2009-05-05,31.235538,"DOTHAN 5.0 W, AL US",0.5772,GHCND:US1ALHS0011,METERS,-85.489197
95.1,2015-03-04,2017-07-01,31.208086,"DOTHAN 2.6 SW, AL US",0.1727,GHCND:US1ALHS0012,METERS,-85.433748
72.8,2016-06-29,2025-12-03,31.095,"REHOBETH 2.1 SSW, AL US",0.8067,GHCND:US1ALHS0013,METERS,-85.464
77.1,2018-01-26,2020-06-11,31.292927,"KINSEY 2.2 E, AL US",0.1567,GHCND:US1ALHS0016,METERS,-85.299718
78.3,2021-06-08,2025-05-20,31.2205,"DOTHAN 3.5 WSW, AL US",0.596,GHCND:US1ALHS0017,METERS,-85.4625
55.8,2024-07-23,2026-04-06,31.17768,"PANSEY 1.6 NNE, AL US",0.8989,GHCND:US1ALHS0023,METERS,-85.170897
63.1,2012-03-09,2026-04-10,31.2875303,"URIAH 8.1 W, AL US",0.7777,GHCND:US1ALMN0003,METERS,-87.6417928
122.2,2012-06-16,2018-08-21,31.40715,"EXCEL 2.5 ESE, AL US",0.8251,GHCND:US1ALMN0004,METERS,-87.30713333
118.0,2018-08-25,2026-04-08,31.412594,"FRISCO CITY 5.0 WSW, AL US",0.7313,GHCND:US1ALMN0006,METERS,-87.484038
35.1,2009-08-15,2026-04-10,29.527244,"ARCHER 5.5 E, FL US",0.7948,GHCND:US1FLAL0002,METERS,-82.427072
43.0,2007-11-01,2023-03-21,29.80059,"BROOKER 6.6 SSE, FL US",0.9484,GHCND:US1FLAL0004,METERS,-82.283616
36.9,2007-10-28,2026-04-09,29.5908,"GAINESVILLE 8.1 SW, FL US",0.9384,GHCND:US1FLAL0007,METERS,-82.4314
38.1,2008-01-22,2023-12-31,29.680193,"GAINESVILLE 3.8 W, FL US",0.9821,GHCND:US1FLAL0010,METERS,-82.398823
24.1,2009-01-01,2013-10-23,29.625433,"ARCHER 6.7 NNE, FL US",0.362,GHCND:US1FLAL0014,METERS,-82.483306
25.0,2009-06-14,2010-03-28,29.625149,"GAINESVILLE 3.7 SSW, FL US",0.5035,GHCND:US1FLAL0016,METERS,-82.361848
22.3,2009-10-26,2026-04-08,29.786949,"HIGH SPRINGS 3.2 SW, FL US",0.4458,GHCND:US1FLAL0017,METERS,-82.627651
21.6,2010-02-14,2019-10-22,29.5093,"MICANOPY 8.5 W, FL US",0.9836,GHCND:US1FLAL0018,METERS,-82.4222
52.7,2010-12-17,2018-06-16,29.664865,"GAINESVILLE 1.9 ESE, FL US",0.0573,GHCND:US1FLAL0020,METERS,-82.306718
53.3,2011-03-21,2026-04-10,29.65547,"GAINESVILLE 1.7 SE, FL US",0.9822,GHCND:US1FLAL0026,METERS,-82.31708
33.8,2011-03-16,2016-10-28,29.62616667,"GAINESVILLE 3.4 S, FL US",0.9236,GHCND:US1FLAL0029,METERS,-82.32583333
42.4,2011-03-15,2014-05-10,29.7448602,"GAINESVILLE 8.1 NE, FL US",0.8699,GHCND:US1FLAL0030,METERS,-82.229445
55.2,2011-04-05,2026-04-08,29.737964,"GAINESVILLE 6.5 NW, FL US",0.9079,GHCND:US1FLAL0031,METERS,-82.416213
25.3,2011-03-12,2014-12-20,29.644473,"GAINESVILLE 6.2 WSW, FL US",0.4014,GHCND:US1FLAL0032,METERS,-82.433873
24.1,2011-03-16,2012-02-24,29.635661,"NEWBERRY 0.7 SSE, FL US",0.7688,GHCND:US1FLAL0034,METERS,-82.608284
40.2,2011-04-02,2012-02-28,29.696273,"EARLETON 3.3 S, FL US",0.8168,GHCND:US1FLAL0035,METERS,-82.095624
37.2,2012-01-01,2013-12-28,29.67926667,"GAINESVILLE 2.6 W, FL US",0.9492,GHCND:US1FLAL0037,METERS,-82.3797
55.5,2008-04-05,2016-04-27,29.69345,"GAINESVILLE 2.1 NW, FL US",0.4784,GHCND:US1FLAL0040,METERS,-82.36282
,2012-09-20,2014-08-23,29.7369613647461,"GAINESVILLE 6.5 NW, FL US",0.5676,GHCND:US1FLAL0041,,-82.4162139892578
41.5,2013-02-17,2017-07-16,29.654633,"GAINESVILLE 1.8 SW, FL US",0.6996,GHCND:US1FLAL0043,METERS,-82.35525
36.6,2014-08-27,2015-01-27,29.4875,"MICANOPY 2.7 ESE, FL US",0.9416,GHCND:US1FLAL0047,METERS,-82.2422
49.7,2014-09-01,2026-04-10,29.67778,"GAINESVILLE 5.4 W, FL US",0.98,GHCND:US1FLAL0048,METERS,-82.426389
35.1,2015-06-25,2026-04-10,29.6478176116943,"GAINESVILLE 2.4 SW, FL US",0.933,GHCND:US1FLAL0050,METERS,-82.36181640625
20.7,2015-08-29,2026-04-10,29.5348,"MICANOPY 2.1 NNE, FL US",0.9912,GHCND:US1FLAL0051,METERS,-82.2681
32.3,2016-03-08,2026-04-10,29.51978,"MICANOPY 2.1 WNW, FL US",0.8467,GHCND:US1FLAL0054,METERS,-82.312725
25.6,2016-04-02,2026-04-09,29.657232,"GAINESVILLE 7.7 W, FL US",0.9883,GHCND:US1FLAL0055,METERS,-82.463644
47.9,2016-04-25,2021-02-13,29.8519458770752,"ALACHUA 5.2 NNW, FL US",0.4265,GHCND:US1FLAL0056,METERS,-82.4999389648438
57.3,2017-02-19,2017-10-06,29.699087,"GAINESVILLE 2.4 NW, FL US",0.913,GHCND:US1FLAL0057,METERS,-82.363345
28.3,2017-06-08,2026-04-10,29.606028,"GAINESVILLE 5.0 SSW, FL US",0.952,GHCND:US1FLAL0058,METERS,-82.362306
43.3,2017-06-07,2018-07-23,29.501908,"MICANOPY 0.3 SSW, FL US",0.767,GHCND:US1FLAL0059,METERS,-82.283076
37.8,2017-09-07,2024-08-19,29.646704,"GAINESVILLE 7.5 WSW, FL US",0.8196,GHCND:US1FLAL0060,METERS,-82.456255
25.9,2017-12-07,2026-03-16,29.64164,"GAINESVILLE 5.8 WSW, FL US",0.2462,GHCND:US1FLAL0061,METERS,-82.42455
46.9,2017-11-24,2026-04-07,29.709135,"MELROSE 1.7 W, FL US",0.5836,GHCND:US1FLAL0062,METERS,-82.066162
49.1,2018-02-05,2026-04-08,29.684325,"GAINESVILLE 3.0 WNW, FL US",0.7853,GHCND:US1FLAL0063,METERS,-82.384629
41.8,2018-03-22,2019-07-27,29.6118,"GAINESVILLE 7.0 SW, FL US",0.9899,GHCND:US1FLAL0065,METERS,-82.42912
36.6,2019-01-05,2026-04-09,29.6164,"HAWTHORNE 5.0 WNW, FL US",0.9106,GHCND:US1FLAL0071,METERS,-82.1658
57.9,2019-01-20,2026-04-08,29.68085,"GAINESVILLE 0.6 NE, FL US",0.3627,GHCND:US1FLAL0072,METERS,-82.32951
43.9,2019-05-15,2026-04-10,29.66918,"GAINESVILLE 0.9 WSW, FL US",0.9211,GHCND:US1FLAL0075,METERS,-82.34958
25.0,2019-05-29,2026-03-17,29.60066,"GAINESVILLE 5.1 S, FL US",0.1622,GHCND:US1FLAL0078,METERS,-82.34533
28.3,2019-04-06,2024-02-23,29.61814,"GAINESVILLE 3.9 S, FL US",0.9737,GHCND:US1FLAL0079,METERS,-82.34215
57.9,2019-04-01,2025-02-17,29.7377,"GAINESVILLE 6.5 NW, FL US",0.7684,GHCND:US1FLAL0080,METERS,-82.4169
29.9,2018-06-01,2025-09-13,29.61641,"GAINESVILLE 8.0 WSW, FL US",0.6243,GHCND:US1FLAL0081,METERS,-82.45139
52.4,2019-05-25,2020-08-19,29.652527,"GAINESVILLE 1.6 SSW, FL US",0.3113,GHCND:US1FLAL0084,METERS,-82.346909
52.1,2019-05-03,2024-03-10,29.695763,"GAINESVILLE 2.0 NW, FL US",0.2773,GHCND:US1FLAL0085,METERS,-82.358636
25.0,2019-05-29,2025-10-25,29.584481,"GAINESVILLE 8.5 SW, FL US",0.5342,GHCND:US1FLAL0086,METERS,-82.432666
27.4,2020-08-22,2021-07-14,29.803028,"ALACHUA 4.2 WNW, FL US",0.9969,GHCND:US1FLAL0093,METERS,-82.544226
53.6,2021-04-02,2026-04-10,29.65599,"GAINESVILLE 0.5 N, FL US",0.6872,GHCND:US1FLAL0095,METERS,-82.32329
41.8,2021-09-23,2026-04-08,29.612167,"GAINESVILLE 7.8 WSW, FL US",0.8927,GHCND:US1FLAL0096,METERS,-82.444544
50.0,2021-10-01,2026-04-09,29.6834,"GAINESVILLE 3.0 WNW, FL US",0.8814,GHCND:US1FLAL0097,METERS,-82.3853
18.9,2022-01-30,2024-09-06,29.845484,"HIGH SPRINGS 2.0 NW, FL US",0.9779,GHCND:US1FLAL0098,METERS,-82.61195
27.4,2023-01-18,2026-04-10,29.588415,"ARCHER 3.8 N, FL US",0.9143,GHCND:US1FLAL0099,METERS,-82.521126
32.0,2020-04-17,2026-04-10,29.6869809,"NEWBERRY 3.0 NNE, FL US",0.4865,GHCND:US1FLAL0102,METERS,-82.6006208
32.3,2023-12-28,2024-12-11,29.86806,"BROOKER 1.6 SW, FL US",0.7543,GHCND:US1FLAL0103,METERS,-82.35111
48.5,2012-08-15,2018-12-16,29.942964,"STARKE 0.9 ESE, FL US",0.994,GHCND:US1FLBF0002,METERS,-82.097943
51.5,2023-07-21,2024-02-13,29.94861,"STARKE 0.5 ENE, FL US",0.7885,GHCND:US1FLBF0003,METERS,-82.1041
29.9,2007-10-03,2018-04-09,30.244688,"MACCLENNY 2.5 S, FL US",0.3019,GHCND:US1FLBK0002,METERS,-82.122433
40.2,2008-02-01,2026-03-29,30.321161,"SANDERSON 4.9 NNW, FL US",0.6607,GHCND:US1FLBK0003,METERS,-82.275681
36.9,2008-07-16,2012-03-13,30.352739,"GLEN ST. MARY 6.6 NW, FL US",0.7046,GHCND:US1FLBK0004,METERS,-82.222588
39.0,2010-11-03,2026-04-10,30.237,"GLEN ST. MARY 4.4 SW, FL US",0.8826,GHCND:US1FLBK0005,METERS,-82.2189
36.3,2009-10-22,2026-04-09,30.298508,"GLEN ST. MARY 1.7 N, FL US",0.9724,GHCND:US1FLBK0006,METERS,-82.16236
40.2,2010-01-02,2026-04-10,30.216118,"MACCLENNY 4.9 SSW, FL US",0.9576,GHCND:US1FLBK0007,METERS,-82.160629
11.9,2007-09-23,2026-04-10,27.951176,"PALM BAY 2.6 SSE, FL US",0.9999,GHCND:US1FLBV0001,METERS,-80.64202
11.9,2003-01-01,2026-04-10,28.18825,"PALM SHORES 1.4 W, FL US",0.9952,GHCND:US1FLBV0002,METERS,-80.680461
11.9,2011-02-28,2026-04-10,28.023488,"PALM BAY 3.1 NNW, FL US",0.9524,GHCND:US1FLBV0005,METERS,-80.688135
9.1,2007-10-01,2026-04-10,28.1312,"MELBOURNE 1.1 N, FL US",0.8123,GHCND:US1FLBV0006,METERS,-80.6436
7.9,2007-11-22,2011-10-19,27.924339,"MICCO 4.5 NW, FL US",0.7003,GHCND:US1FLBV0007,METERS,-80.55728
10.1,2007-10-09,2011-04-18,28.026674,"MALABAR 2.9 NNW, FL US",0.7073,GHCND:US1FLBV0009,METERS,-80.594683
0.0,2007-10-23,2026-04-10,28.0165,"MELBOURNE BEACH 3.9 SSE, FL US",0.6909,GHCND:US1FLBV0011,METERS,-80.5332
6.1,2007-10-16,2025-05-12,28.3861,"CAPE CANAVERAL 0.6 ESE, FL US",0.5635,GHCND:US1FLBV0012,METERS,-80.6003
11.9,2004-01-31,2026-04-10,28.312227,"ROCKLEDGE 1.1 WSW, FL US",0.8194,GHCND:US1FLBV0013,METERS,-80.745553
11.0,2007-11-14,2026-04-10,27.99208,"PALM BAY 1.0 NE, FL US",0.6783,GHCND:US1FLBV0014,METERS,-80.64322
14.0,2007-11-15,2017-09-10,28.21185,"PALM SHORES 2.9 NW, FL US",0.3846,GHCND:US1FLBV0016,METERS,-80.696076
6.1,2008-05-29,2026-04-10,28.2439,"PALM SHORES 4.3 NNW, FL US",0.9582,GHCND:US1FLBV0020,METERS,-80.6842
9.1,2008-07-25,2010-12-17,28.1796,"MELBOURNE 7.0 NW, FL US",0.9132,GHCND:US1FLBV0022,METERS,-80.6809
7.0,2004-04-01,2026-04-10,28.3956,"COCOA 2.6 WNW, FL US",0.7949,GHCND:US1FLBV0023,METERS,-80.7868
4.0,2008-08-23,2011-06-19,28.099235,"INDIALANTIC 0.8 N, FL US",0.9806,GHCND:US1FLBV0024,METERS,-80.570188
9.1,2008-08-31,2015-10-24,28.201018,"MELBOURNE 8.2 NW, FL US",0.9908,GHCND:US1FLBV0025,METERS,-80.705532
7.0,2008-08-27,2011-07-04,28.372776,"COCOA 0.6 WSW, FL US",0.8848,GHCND:US1FLBV0026,METERS,-80.756136
5.8,2008-10-23,2024-02-02,27.886064,"MICCO 1.3 NW, FL US",0.878,GHCND:US1FLBV0028,METERS,-80.528297
1.2,2009-05-16,2024-08-09,28.40172,"MERRITT ISLAND 4.1 NE, FL US",0.0552,GHCND:US1FLBV0032,METERS,-80.6729
1.2,2009-09-12,2026-04-10,28.479253,"MERRIT ISLAND 9.1 N, FL US",0.8099,GHCND:US1FLBV0036,METERS,-80.709267
12.2,2010-01-13,2026-04-10,28.6282,"TITUSVILLE 3.5 NW, FL US",0.9076,GHCND:US1FLBV0038,METERS,-80.8572
4.6,2010-06-01,2017-08-22,28.24844,"MELBOURNE 12.5 NNW, FL US",0.8443,GHCND:US1FLBV0039,METERS,-80.69313
5.8,1998-06-17,2017-10-19,28.668625,"MIMS 1.6 SW, FL US",0.0903,GHCND:US1FLBV0040,METERS,-80.865034
1.5,2011-03-29,2015-11-03,28.417467,"CAPE CANAVERAL 6.5 WNW, FL US",0.8733,GHCND:US1FLBV0042,METERS,-80.719533
5.8,2012-01-11,2013-12-05,28.566816,"TITUSVILLE 1.8 SW, FL US",0.7266,GHCND:US1FLBV0044,METERS,-80.837613
8.5,2012-04-01,2020-04-25,28.147706,"MELBOURNE 3.2 NW, FL US",0.0658,GHCND:US1FLBV0045,METERS,-80.677929
2.1,2012-08-04,2026-04-10,28.3452,"ROCKLEDGE 1.8 NNE, FL US",0.9196,GHCND:US1FLBV0047,METERS,-80.7217
10.1,2014-09-17,2021-06-03,28.2361,"PALM SHORES 4.0 NNW, FL US",0.7374,GHCND:US1FLBV0049,METERS,-80.6908
5.5,2013-12-23,2026-04-10,28.1825,"MELBOURNE 4.7 N, FL US",0.4633,GHCND:US1FLBV0050,METERS,-80.6524
10.4,2014-03-13,2017-02-25,28.215782,"MELBOURNE 7.5 NNW, FL US",0.9843,GHCND:US1FLBV0051,METERS,-80.684131
3.4,2014-03-16,2026-04-10,28.132907,"INDIALANTIC 3.3 NNW, FL US",0.9667,GHCND:US1FLBV0052,METERS,-80.585547
9.1,2014-04-15,2014-09-15,28.0063747,"PALM BAY 1.7 NE, FL US",0.8182,GHCND:US1FLBV0053,METERS,-80.644286
0.3,2014-04-24,2025-04-09,28.365179,"MERRITT ISLAND 3.8 N, FL US",0.8209,GHCND:US1FLBV0054,METERS,-80.66471
7.3,2014-07-21,2026-04-10,28.05618,"MELBOURNE 4.1 S, FL US",0.5645,GHCND:US1FLBV0055,METERS,-80.62987
12.2,2015-05-21,2015-11-18,28.393068,"COCOA 1.1 NNW, FL US",0.8681,GHCND:US1FLBV0056,METERS,-80.754001
,2016-01-01,2017-09-10,28.3622809499502,"MERRITT ISLAND 3.6 N, FL US",0.832,GHCND:US1FLBV0058,,-80.6657664477825
8.2,2016-01-22,2026-04-10,27.950097,"PALM BAY 2.7 SSE, FL US",0.9644,GHCND:US1FLBV0059,METERS,-80.642062
10.1,2016-10-19,2022-10-16,28.1712,"MELBOURNE 4.6 NNW, FL US",0.9776,GHCND:US1FLBV0063,METERS,-80.6816
0.9,2016-12-16,2019-07-09,28.459774,"SHARPES 2.9 ENE, FL US",0.4754,GHCND:US1FLBV0065,METERS,-80.717905
7.0,2017-02-22,2026-04-10,27.914683,"PALM BAY 4.9 S, FL US",0.8045,GHCND:US1FLBV0067,METERS,-80.652338
7.3,2017-03-22,2026-04-10,27.939933,"PALM BAY 3.2 S, FL US",0.9305,GHCND:US1FLBV0072,METERS,-80.669107
8.8,2017-04-23,2022-12-06,28.5808,"TITUSVILLE 0.9 SW, FL US",0.388,GHCND:US1FLBV0073,METERS,-80.83114
7.9,2017-03-19,2018-10-14,28.6613616,"TITUSVILLE 5.9 NNW, FL US",0.8678,GHCND:US1FLBV0074,METERS,-80.8699074
3.0,2017-03-22,2021-02-16,28.382235,"MERRITT ISLAND 5.6 NNW, FL US",0.8908,GHCND:US1FLBV0075,METERS,-80.706679
7.6,2017-03-13,2020-06-21,28.179466,"MELBOURNE 4.6 NNW, FL US",0.203,GHCND:US1FLBV0077,METERS,-80.660853
10.4,2017-04-03,2026-04-10,28.42102,"COCOA 5.1 NW, FL US",0.912,GHCND:US1FLBV0078,METERS,-80.81711
8.5,2017-09-08,2026-04-09,28.4247,"COCOA 4.6 NW, FL US",0.3402,GHCND:US1FLBV0085,METERS,-80.8018
8.2,2017-09-01,2018-10-10,28.64682,"MIMS 3.3 SW, FL US",0.2963,GHCND:US1FLBV0086,METERS,-80.88007
10.7,2017-10-06,2021-08-08,28.1733,"MELBOURNE 4.6 NNW, FL US",0.1625,GHCND:US1FLBV0087,METERS,-80.677
6.7,2017-11-10,2018-06-19,28.5558,"TITUSVILLE 2.5 SSE, FL US",0.8018,GHCND:US1FLBV0088,METERS,-80.8039
3.0,2017-11-24,2024-08-17,28.162773,"SATELLITE BEACH 0.7 ESE, FL US",0.9455,GHCND:US1FLBV0089,METERS,-80.59136
4.6,2018-04-01,2022-09-28,28.20448,"SATELLITE BEACH 2.0 N, FL US",0.9562,GHCND:US1FLBV0092,METERS,-80.60123
8.5,2018-04-10,2026-04-09,28.45848,"MERRITT ISLAND 10.6 NNW, FL US",0.9432,GHCND:US1FLBV0095,METERS,-80.70775
7.3,2018-07-20,2022-02-17,28.050179,"WEST MELBOURNE 2.5 SSW, FL US",0.8594,GHCND:US1FLBV0099,METERS,-80.693915
9.4,2018-11-20,2020-08-20,27.99038,"PALM BAY 0.9 ENE, FL US",0.825,GHCND:US1FLBV0100,METERS,-80.64723
7.0,2000-05-29,2024-11-20,28.009979,"PALM BAY 2.6 NW, FL US",0.2268,GHCND:US1FLBV0102,METERS,-80.691883
9.1,2019-01-19,2021-11-22,27.99491,"PALM BAY 0.9 NE, FL US",0.8537,GHCND:US1FLBV0103,METERS,-80.65048
2.7,2019-03-23,2021-02-27,28.02972222,"MELBOURNE BEACH 2.8 SSE, FL US",0.9562,GHCND:US1FLBV0105,METERS,-80.54166667
5.5,2019-05-08,2026-04-10,28.116404,"INDIALANTIC 2.1 NNW, FL US",0.996,GHCND:US1FLBV0107,METERS,-80.580601
2.4,2017-02-21,2026-04-10,28.199197,"SATELLITE BEACH 1.7 NNW, FL US",0.5258,GHCND:US1FLBV0109,METERS,-80.609386
5.5,2019-08-31,2026-04-10,28.02342,"PALM BAY 3.7 NE, FL US",0.9694,GHCND:US1FLBV0110,METERS,-80.617358
8.8,2020-02-27,2026-04-10,28.145235,"MELBOURNE 7.7 WNW, FL US",0.6286,GHCND:US1FLBV0111,METERS,-80.715782
2.1,2020-03-17,2023-10-24,28.1668,"SATELLITE BEACH 0.8 SE, FL US",0.9749,GHCND:US1FLBV0113,METERS,-80.5912
6.1,2020-04-10,2021-12-16,28.015158,"PALM BAY 4.8 ENE, FL US",0.7971,GHCND:US1FLBV0114,METERS,-80.589071
1.5,2020-05-18,2021-06-22,28.640048,"MIMS 3.1 S, FL US",0.2519,GHCND:US1FLBV0115,METERS,-80.854231
0.6,2020-07-05,2021-11-22,28.449279,"SHARPES 3.8 ENE, FL US",0.4269,GHCND:US1FLBV0117,METERS,-80.697725
7.0,2020-07-26,2023-05-16,27.9075,"GRANT 1.5 S, FL US",0.9893,GHCND:US1FLBV0118,METERS,-80.5242
10.7,2021-04-01,2026-04-10,27.992562,"PALM BAY 2.5 W, FL US",0.9798,GHCND:US1FLBV0123,METERS,-80.70071
11.9,2021-04-15,2022-12-23,28.071057,"WEST MELBOURNE 0.9 SE, FL US",0.1958,GHCND:US1FLBV0124,METERS,-80.659963
11.6,2021-08-02,2026-04-10,28.079949,"MELBOURNE 2.5 S, FL US",0.9562,GHCND:US1FLBV0125,METERS,-80.633433
5.8,2021-07-24,2026-04-10,28.329101,"ROCKLEDGE 0.9 NW, FL US",0.8792,GHCND:US1FLBV0126,METERS,-80.740489
1.2,2021-12-29,2022-10-31,28.34219,"MERRITT ISLAND 3.0 NW, FL US",0.7134,GHCND:US1FLBV0133,METERS,-80.69866
11.0,2021-12-30,2026-04-10,28.384167,"COCOA 1.1 WNW, FL US",0.5112,GHCND:US1FLBV0134,METERS,-80.766254
7.9,2022-03-08,2026-04-10,28.005977,"PALM BAY 1.5 NNW, FL US",0.3518,GHCND:US1FLBV0136,METERS,-80.668833
6.4,2022-03-29,2026-04-10,28.086955,"WEST MELBOURNE 1.6 WNW, FL US",0.9389,GHCND:US1FLBV0137,METERS,-80.696359
2.1,2022-06-12,2026-04-09,28.352121,"MERRITT ISLAND 3.4 NNW, FL US",0.5415,GHCND:US1FLBV0143,METERS,-80.693381
7.3,2022-06-27,2023-02-05,28.226784,"MELBOURNE 10.1 NW, FL US",0.5134,GHCND:US1FLBV0144,METERS,-80.745751
9.1,2022-08-05,2026-03-25,28.611969,"TITUSVILLE 1.7 NNW, FL US",0.222,GHCND:US1FLBV0145,METERS,-80.830451
2.4,2022-11-01,2026-04-10,28.348487,"MERRITT ISLAND 3.1 NNW, FL US",0.9475,GHCND:US1FLBV0146,METERS,-80.693174
2.4,2023-04-09,2026-04-09,28.3408489,"ROCKLEDGE 1.6 NNE, FL US",0.701,GHCND:US1FLBV0149,METERS,-80.720164
8.2,2024-03-04,2026-04-10,28.00975,"PALM BAY 1.8 NNE, FL US",0.9961,GHCND:US1FLBV0151,METERS,-80.64725
6.4,2024-07-26,2026-04-10,28.165102,"MELBOURNE 3.5 N, FL US",0.6442,GHCND:US1FLBV0154,METERS,-80.650582
0.9,2012-04-27,2017-01-23,26.035345,"HOLLYWOOD 1.1 WNW, FL US",0.82,GHCND:US1FLBW0001,METERS,-80.139444
4.9,2007-10-05,2024-02-19,26.01455,"PEMBROKE PINES 1.0 ENE, FL US",0.398,GHCND:US1FLBW0004,METERS,-80.3255
7.0,2007-10-07,2012-05-01,26.0953,"RIVERLAND 1.5 E, FL US",0.1114,GHCND:US1FLBW0005,METERS,-80.1634
4.9,2007-10-09,2026-04-10,26.286,"POMPANO BEACH HIGHLANDS 0.7 E, FL US",0.9399,GHCND:US1FLBW0007,METERS,-80.103
4.9,2007-10-13,2012-08-28,26.1816,"OAKLAND PARK 0.5 NNW, FL US",0.1801,GHCND:US1FLBW0008,METERS,-80.15699
3.7,2007-10-28,2013-10-29,26.28095,"CORAL SPRINGS 1.1 NW, FL US",0.9348,GHCND:US1FLBW0009,METERS,-80.27119
7.9,2007-12-02,2009-05-01,26.171092,"SUNRISE 1.3 N, FL US",0.971,GHCND:US1FLBW0012,METERS,-80.300448
4.9,2007-12-14,2022-04-22,25.9917,"MIRAMAR 3.0 WNW, FL US",0.926,GHCND:US1FLBW0013,METERS,-80.3791
0.9,2008-05-08,2022-07-19,26.11786,"FORT LAUDERDALE 1.9 SSW, FL US",0.9306,GHCND:US1FLBW0016,METERS,-80.152112
4.3,2008-08-03,2012-12-06,26.320261,"PARKLAND 2.1 E, FL US",0.9219,GHCND:US1FLBW0019,METERS,-80.204231
0.9,2008-12-14,2012-03-29,26.002149,"PEMBROKE PINES 2.4 ESE, FL US",0.7704,GHCND:US1FLBW0021,METERS,-80.274481
1.8,2009-06-05,2017-04-03,26.184626,"OAKLAND PARK 1.0 NE, FL US",0.292,GHCND:US1FLBW0024,METERS,-80.142663
0.3,2009-11-20,2022-12-31,26.303831,"DEERFIELD BEACH 2.5 ESE, FL US",0.7664,GHCND:US1FLBW0026,METERS,-80.081289
2.4,2010-03-30,2011-08-10,26.185782,"OAKLAND PARK 1.9 ENE, FL US",0.5351,GHCND:US1FLBW0027,METERS,-80.125064
2.4,2010-08-01,2012-02-20,26.179458,"LAUDERHILL 2.3 WNW, FL US",0.9525,GHCND:US1FLBW0028,METERS,-80.266323
4.0,2010-08-11,2014-11-02,26.30825,"DEERFIELD BEACH 1.7 WSW, FL US",0.7942,GHCND:US1FLBW0029,METERS,-80.147005
1.2,2011-06-28,2011-11-20,26.205721,"FORT LAUDERDALE 6.0 NNE, FL US",0.7945,GHCND:US1FLBW0033,METERS,-80.114744
4.6,2013-03-19,2016-02-06,26.096823,"FORT LAUDERDALE 4.3 WSW, FL US",0.6256,GHCND:US1FLBW0036,METERS,-80.205958
1.5,2014-03-24,2018-10-12,26.144214630127,"FORT LAUDERDALE 0.2 WNW, FL US",0.4651,GHCND:US1FLBW0040,METERS,-80.1428527832031
2.1,2014-03-25,2014-08-26,26.135347,"SUNRISE 2.2 WSW, FL US",0.9419,GHCND:US1FLBW0041,METERS,-80.328051
1.8,2014-04-16,2026-04-05,25.979063,"MIRAMAR 3.7 E, FL US",0.1367,GHCND:US1FLBW0045,METERS,-80.274199
1.8,2014-04-13,2020-06-13,26.2263774871826,"POMPANO BEACH 1.1 SE, FL US",0.0768,GHCND:US1FLBW0046,METERS,-80.1199188232422
2.4,2014-04-09,2015-03-01,26.1740567,"SUNRISE 1.5 N, FL US",0.318,GHCND:US1FLBW0047,METERS,-80.2985547
1.8,2014-03-30,2020-05-26,26.0346050262451,"COOPER CITY 1.3 WSW, FL US",0.9262,GHCND:US1FLBW0048,METERS,-80.3069686889648
2.1,2014-04-04,2017-09-19,26.1121,"PLANTATION 2.5 ESE, FL US",0.7257,GHCND:US1FLBW0051,METERS,-80.2247
3.4,2014-03-30,2017-04-20,26.227991,"TAMARAC 1.7 NNW, FL US",0.4651,GHCND:US1FLBW0059,METERS,-80.264397
2.4,2013-12-06,2026-04-10,26.0645198822021,"DAVIE 2.6 WSW, FL US",0.7485,GHCND:US1FLBW0067,METERS,-80.3256072998047
2.4,2014-03-22,2015-12-06,26.107307,"FORT LAUDERDALE 4.0 SW, FL US",0.6752,GHCND:US1FLBW0070,METERS,-80.190502
2.4,2014-04-01,2026-04-10,26.118211,"PLANTATION 3.4 E, FL US",0.9993,GHCND:US1FLBW0076,METERS,-80.206628
3.0,1998-06-17,2026-04-10,26.245883,"MARGATE 0.4 W, FL US",0.2211,GHCND:US1FLBW0079,METERS,-80.218017
5.5,2014-05-04,2020-07-13,26.2928286194801,"DEERFIELD BEACH 1.4 S, FL US",0.1021,GHCND:US1FLBW0083,METERS,-80.12221544981
3.0,2014-10-11,2019-09-15,26.210471,"TAMARAC 2.2 W, FL US",0.9067,GHCND:US1FLBW0087,METERS,-80.292299
1.5,2014-10-14,2019-06-06,26.14957,"FORT LAUDERDALE 0.5 NNE, FL US",0.7749,GHCND:US1FLBW0090,METERS,-80.13616
2.4,2015-03-18,2016-04-11,26.113773,"WESTON 1.1 NNE, FL US",0.7033,GHCND:US1FLBW0093,METERS,-80.389884
1.8,2015-03-24,2026-04-10,26.106931,"PLANTATION 1.9 SE, FL US",0.8434,GHCND:US1FLBW0095,METERS,-80.23944
1.5,2015-04-18,2017-07-13,26.007016,"PEMBROKE PINES 5.0 W, FL US",0.2861,GHCND:US1FLBW0098,METERS,-80.42131
,2015-07-01,2026-04-09,26.07204,"WESTON 2.8 SE, FL US",0.5536,GHCND:US1FLBW0099,,-80.3679
1.8,2015-07-11,2017-01-18,26.0726699829102,"DAVIE 3.2 ESE, FL US",0.3513,GHCND:US1FLBW0100,METERS,-80.2380752563477
2.4,2015-10-31,2019-01-13,26.1572284698486,"SUNRISE 0.6 NE, FL US",0.4295,GHCND:US1FLBW0102,METERS,-80.2904815673828
1.5,2015-11-01,2026-04-10,25.974669,"MIRAMAR 2.1 W, FL US",0.8178,GHCND:US1FLBW0103,METERS,-80.36703
2.1,2016-04-22,2016-09-24,26.141153,"PLANTATION 1.2 NNE, FL US",0.7244,GHCND:US1FLBW0105,METERS,-80.253591
2.7,2016-07-30,2021-01-09,26.10916,"PLANTATION 1.2 SSW, FL US",0.6578,GHCND:US1FLBW0106,METERS,-80.266049
1.8,2016-10-19,2018-01-31,26.1294422149658,"PLANTATION 1.3 WNW, FL US",0.6426,GHCND:US1FLBW0108,METERS,-80.2824935913086
1.8,2016-11-01,2021-10-18,26.0377389,"HOLLYWOOD 1.1 WNW, FL US",0.9073,GHCND:US1FLBW0110,METERS,-80.179971
1.8,2017-03-13,2020-03-12,26.09734722,"DAVIE 2.3 ENE, FL US",0.687,GHCND:US1FLBW0115,METERS,-80.25561111
2.1,2017-03-19,2026-04-08,26.139089,"PLANTATION 2.3 WNW, FL US",0.5402,GHCND:US1FLBW0116,METERS,-80.295318
2.7,2017-05-05,2017-09-19,25.98663,"HOLLYWOOD 3.9 SW, FL US",0.9348,GHCND:US1FLBW0117,METERS,-80.20419
3.0,2017-03-31,2026-04-10,26.27232,"POMPANO BEACH 3.1 NE, FL US",0.9806,GHCND:US1FLBW0121,METERS,-80.10258
1.5,2017-06-14,2020-03-31,26.170664,"OAKLAND PARK 0.3 SE, FL US",0.999,GHCND:US1FLBW0127,METERS,-80.150142
1.8,2017-08-18,2018-12-12,26.146375,"PLANTATION 1.4 N, FL US",0.3631,GHCND:US1FLBW0128,METERS,-80.260109
0.9,2017-09-30,2019-01-02,26.161775,"WILTON MANORS 0.8 WNW, FL US",0.3217,GHCND:US1FLBW0130,METERS,-80.151628
1.5,2017-11-28,2026-04-10,25.976034,"MIRAMAR 2.3 W, FL US",0.963,GHCND:US1FLBW0131,METERS,-80.3696
5.5,2018-04-04,2026-04-10,26.25213,"POMPANO BEACH 1.2 NNE, FL US",0.986,GHCND:US1FLBW0137,METERS,-80.1224
1.5,2018-03-30,2026-03-29,26.181787,"SUNRISE 2.1 N, FL US",0.18,GHCND:US1FLBW0139,METERS,-80.299917
1.5,2019-01-04,2025-12-12,26.180625,"OAKLAND PARK 1.0 WNW, FL US",0.2529,GHCND:US1FLBW0145,METERS,-80.168366
3.0,2019-07-01,2026-04-02,26.2632,"CORAL SPRINGS 0.4 S, FL US",0.5247,GHCND:US1FLBW0148,METERS,-80.25925
1.8,2019-09-03,2021-01-23,26.12944,"PLANTATION 1.3 WNW, FL US",0.5128,GHCND:US1FLBW0150,METERS,-80.28249
2.4,2020-04-22,2026-04-10,26.15695,"SUNRISE 0.4 NNE, FL US",0.8844,GHCND:US1FLBW0151,METERS,-80.2965
2.4,2020-05-29,2025-12-24,26.007778,"PEMBROKE PINES 4.1 E, FL US",0.1478,GHCND:US1FLBW0153,METERS,-80.229722
0.0,2020-10-27,2026-04-10,26.057653,"COOPER CITY 1.3 NE, FL US",0.9608,GHCND:US1FLBW0155,METERS,-80.275665
1.2,2021-03-18,2026-04-09,26.188457,"FORT LAUDERDALE 3.7 NNE, FL US",0.9892,GHCND:US1FLBW0159,METERS,-80.109403
4.9,2021-03-21,2026-04-10,26.16675,"SUNRISE 1.3 NW, FL US",0.9507,GHCND:US1FLBW0160,METERS,-80.31064
2.1,2021-04-10,2026-04-07,26.01984,"PEMBROKE PINES 0.7 N, FL US",0.8695,GHCND:US1FLBW0161,METERS,-80.34075
7.0,2021-06-03,2026-01-01,26.25633,"MARGATE 0.8 NNW, FL US",0.8841,GHCND:US1FLBW0162,METERS,-80.214714
2.7,2021-07-06,2023-11-09,26.24917,"MARGATE 0.3 NNE, FL US",0.881,GHCND:US1FLBW0165,METERS,-80.20933
3.0,2021-07-07,2022-07-25,26.12141,"WESTON 1.7 NNW, FL US",0.9453,GHCND:US1FLBW0166,METERS,-80.412704
2.1,2021-08-01,2026-04-09,26.30951,"DEERFIELD BEACH 1.7 E, FL US",0.9743,GHCND:US1FLBW0167,METERS,-80.0938
1.8,2022-03-25,2026-04-10,26.02783,"PEMBROKE PINES 1.6 NE, FL US",0.8863,GHCND:US1FLBW0168,METERS,-80.3236
5.8,2022-10-02,2026-04-09,26.007675,"HOLLYWOOD 2.2 SE, FL US",0.9082,GHCND:US1FLBW0170,METERS,-80.13913
0.3,2023-04-09,2026-04-09,26.162577,"WILTON MANORS 0.3 NNW, FL US",0.8806,GHCND:US1FLBW0172,METERS,-80.14073
3.7,2023-05-28,2024-08-07,26.0056304,"HOLLYWOOD 2.0 SSE, FL US",0.847,GHCND:US1FLBW0174,METERS,-80.1474856
1.2,2024-06-25,2025-04-09,26.15439,"FORT LAUDERDALE 2.0 ENE, FL US",0.6228,GHCND:US1FLBW0179,METERS,-80.10944
14.0,2007-11-01,2012-08-28,30.141475,"CALLAWAY 0.3 W, FL US",0.7079,GHCND:US1FLBY0001,METERS,-85.582436
9.1,2012-07-29,2026-04-10,30.206798,"PANAMA CITY BEACH 0.3 SW, FL US",0.9369,GHCND:US1FLBY0007,METERS,-85.855352
13.4,2012-08-18,2026-04-10,30.2535,"PANAMA CITY BEACH 5.9 WNW, FL US",0.932,GHCND:US1FLBY0010,METERS,-85.93693
6.4,2013-05-13,2019-03-24,30.2017574310303,"PANAMA CITY BEACH 1.2 ESE, FL US",0.9785,GHCND:US1FLBY0011,METERS,-85.83447265625
4.6,2013-08-17,2016-08-24,30.131943,"CALLAWAY 0.6 S, FL US",0.9873,GHCND:US1FLBY0012,METERS,-85.577016
7.9,2016-09-01,2018-10-13,30.2209,"LYNN HAVEN 1.6 SSE, FL US",0.9405,GHCND:US1FLBY0013,METERS,-85.64312
4.9,2016-10-18,2026-03-16,30.1841333,"PANAMA CITY BEACH 4.9 ESE, FL US",0.2616,GHCND:US1FLBY0014,METERS,-85.7765005
40.2,2017-04-04,2026-04-10,30.432762,"FOUNTAIN 3.4 SSE, FL US",0.9569,GHCND:US1FLBY0015,METERS,-85.39918
4.3,2017-04-18,2021-01-22,30.13825,"PANAMA CITY 6.9 ESE, FL US",0.9724,GHCND:US1FLBY0016,METERS,-85.56562
5.8,2018-05-31,2026-02-16,30.241976,"LYNN HAVEN 0.4 E, FL US",0.2224,GHCND:US1FLBY0019,METERS,-85.645698
4.0,2018-10-06,2023-02-05,30.162756,"PANAMA CITY BEACH 5.4 SE, FL US",0.8971,GHCND:US1FLBY0021,METERS,-85.780702
5.8,2019-08-27,2026-04-10,30.1807529,"PANAMA CITY BEACH 4.4 ESE, FL US",0.9785,GHCND:US1FLBY0022,METERS,-85.7869488
2.1,2019-12-01,2026-04-09,30.2404,"LYNN HAVEN 1.0 W, FL US",0.5939,GHCND:US1FLBY0023,METERS,-85.6674
8.2,2020-05-05,2026-04-09,30.15108,"PANAMA CITY 1.9 SE, FL US",0.9949,GHCND:US1FLBY0024,METERS,-85.65493
11.3,2021-04-16,2026-04-10,30.201578,"PANAMA CITY BEACH 0.8 SE, FL US",0.9912,GHCND:US1FLBY0025,METERS,-85.843619
7.0,2021-03-10,2026-04-07,30.135307,"PARKER 0.6 NNE, FL US",0.9073,GHCND:US1FLBY0026,METERS,-85.595186
26.8,2021-03-25,2026-04-10,30.411904,"YOUNGSTOWN 6.7 WNW, FL US",0.8166,GHCND:US1FLBY0027,METERS,-85.537576
3.0,2022-06-06,2026-04-09,30.254312,"LYNN HAVEN 1.9 ENE, FL US",0.8526,GHCND:US1FLBY0028,METERS,-85.623063
6.7,2022-11-06,2025-06-04,30.14258,"PANAMA CITY 3.0 SE, FL US",0.5329,GHCND:US1FLBY0030,METERS,-85.63972
,2007-10-08,2012-06-27,29.940134,"FORT WHITE 1.9 NW, FL US",0.269,GHCND:US1FLCB0001,,-82.737953
34.1,2010-09-28,2014-08-27,30.15,"LAKE CITY 3.4 SSW, FL US",0.151,GHCND:US1FLCB0005,METERS,-82.67
14.6,2011-04-04,2012-12-26,29.845723,"FORT WHITE 6.4 SE, FL US",0.5324,GHCND:US1FLCB0007,METERS,-82.652929
31.4,2014-04-23,2016-07-15,30.091236114502,"LAKE CITY 10.2 SW, FL US",0.346,GHCND:US1FLCB0009,METERS,-82.7665481567383
30.5,2014-03-06,2024-06-26,30.3178,"WHITE SPRINGS 1.0 SSE, FL US",0.9764,GHCND:US1FLCB0010,METERS,-82.7543
25.3,2014-04-19,2026-04-08,30.0812,"LAKE CITY 7.9 SSW, FL US",0.9785,GHCND:US1FLCB0012,METERS,-82.671
29.9,2014-09-02,2025-01-14,30.317465,"WHITE SPRINGS 1.0 SSE, FL US",0.1626,GHCND:US1FLCB0014,METERS,-82.753975
14.6,2016-03-25,2018-05-17,29.9447803497314,"FORT WHITE 3.2 WNW, FL US",0.824,GHCND:US1FLCB0015,METERS,-82.7604446411133
46.0,2017-11-29,2018-04-04,30.2627,"LAKE CITY 8.0 NW, FL US",0.8504,GHCND:US1FLCB0018,METERS,-82.74846
45.1,2018-04-05,2026-04-09,30.068055,"LAKE CITY 8.7 S, FL US",0.8022,GHCND:US1FLCB0019,METERS,-82.62196
17.4,2020-07-31,2024-10-11,29.8735,"FORT WHITE 3.8 SSW, FL US",0.9316,GHCND:US1FLCB0024,METERS,-82.7463
49.1,2020-08-11,2026-04-10,30.1706400573904,"LAKE CITY 2.8 ESE, FL US",0.9942,GHCND:US1FLCB0025,METERS,-82.6036491227075
20.7,2021-03-17,2026-04-10,29.916637,"FORT WHITE 2.4 E, FL US",0.9897,GHCND:US1FLCB0026,METERS,-82.6751257
31.4,2023-04-04,2026-04-09,29.971833,"FORT WHITE 4.4 NE, FL US",0.9791,GHCND:US1FLCB0028,METERS,-82.670401
28.7,2024-06-27,2026-04-10,30.319669,"WHITE SPRINGS 2.3 WSW, FL US",0.9939,GHCND:US1FLCB0029,METERS,-82.794203
11.0,2007-10-01,2016-09-15,27.01,"PORT CHARLOTTE 2.9 NE, FL US",0.8372,GHCND:US1FLCH0001,METERS,-82.07
0.0,2007-09-27,2009-12-15,26.909821,"PUNTA GORDA 1.0 NNW, FL US",0.8533,GHCND:US1FLCH0002,METERS,-82.065356
6.1,2007-10-19,2016-04-16,26.758011,"PUNTA GORDA 9.6 S, FL US",0.5478,GHCND:US1FLCH0003,METERS,-82.056489
6.1,2007-12-18,2008-08-19,26.911171,"ROTONDA 4.2 ENE, FL US",0.5285,GHCND:US1FLCH0005,METERS,-82.21825
4.0,2007-10-04,2021-06-28,26.885325,"ROTONDA 0.8 WNW, FL US",0.3235,GHCND:US1FLCH0006,METERS,-82.289834
7.0,2007-11-09,2009-05-25,27.009419,"PORT CHARLOTTE 1.7 N, FL US",0.617,GHCND:US1FLCH0008,METERS,-82.112089
0.9,2008-07-08,2010-10-04,26.9758,"PORT CHARLOTTE 6.4 W, FL US",0.9109,GHCND:US1FLCH0010,METERS,-82.2114
6.1,2008-08-19,2020-08-03,27.011923,"PUNTA GORDA 8.3 NNE, FL US",0.3835,GHCND:US1FLCH0011,METERS,-82.039872
0.9,2009-02-06,2022-09-27,26.980545,"PORT CHARLOTTE 6.2 W, FL US",0.9795,GHCND:US1FLCH0013,METERS,-82.209412
3.0,2009-09-12,2023-08-25,26.982827,"PORT CHARLOTTE 3.3 E, FL US",0.7865,GHCND:US1FLCH0015,METERS,-82.0552
0.3,2010-10-01,2024-03-31,26.919731,"PUNTA GORDA 1.6 NNW, FL US",0.8469,GHCND:US1FLCH0017,METERS,-82.0653169
6.1,2010-10-20,2017-01-25,26.936483,"ENGLEWOOD 5.4 ESE, FL US",0.9786,GHCND:US1FLCH0018,METERS,-82.270692
0.3,2012-08-29,2026-04-10,26.916,"PUNTA GORDA 1.4 NNW, FL US",0.7943,GHCND:US1FLCH0019,METERS,-82.068
4.6,2013-07-12,2014-08-17,27.0236148834229,"PORT CHARLOTTE 2.7 N, FL US",0.4353,GHCND:US1FLCH0020,METERS,-82.1030883789063
0.3,2014-05-21,2026-04-01,26.91748,"PUNTA GORDA 1.6 NNW, FL US",0.8256,GHCND:US1FLCH0023,METERS,-82.0689
2.7,2014-10-01,2020-02-02,26.99603,"PORT CHARLOTTE 1.9 ENE, FL US",0.1522,GHCND:US1FLCH0024,METERS,-82.079741
8.5,2017-02-22,2018-03-28,27.016082,"PUNTA GORDA 8.3 N, FL US",0.945,GHCND:US1FLCH0028,METERS,-82.034243
1.8,2017-04-25,2026-04-10,26.89659,"PORT CHARLOTTE 9.3 SW, FL US",0.8417,GHCND:US1FLCH0029,METERS,-82.22205
2.4,2017-05-05,2026-04-08,26.963381,"PORT CHARLOTTE 4.0 WSW, FL US",0.1518,GHCND:US1FLCH0030,METERS,-82.168039
0.9,2018-08-21,2020-11-01,26.895561,"PORT CHARLOTTE 8.0 SW, FL US",0.8545,GHCND:US1FLCH0033,METERS,-82.190926
2.1,2019-04-05,2023-06-29,26.93531,"ENGLEWOOD 2.4 SE, FL US",0.8171,GHCND:US1FLCH0034,METERS,-82.32599
17.4,2019-11-23,2026-04-10,27.03233,"NORTH PORT 1.2 SSE, FL US",0.9738,GHCND:US1FLCH0035,METERS,-82.190153
9.1,2019-12-18,2026-04-10,27.028739,"PORT CHARLOTTE 3.8 NE, FL US",0.6943,GHCND:US1FLCH0036,METERS,-82.07105
7.0,2020-04-25,2026-04-08,27.023098,"PORT CHARLOTTE 3.7 NE, FL US",0.1899,GHCND:US1FLCH0037,METERS,-82.066335
6.4,2020-02-19,2022-01-01,27.019368,"PORT CHARLOTTE 2.6 NNE, FL US",0.5754,GHCND:US1FLCH0038,METERS,-82.090123
4.0,2020-06-24,2026-04-10,26.930229,"GROVE CITY 2.8 NE, FL US",1.0,GHCND:US1FLCH0039,METERS,-82.285098
0.9,2020-07-21,2026-04-10,26.987012,"NORTH PORT 5.4 SW, FL US",0.9493,GHCND:US1FLCH0040,METERS,-82.24624
2.7,2021-10-29,2026-04-10,26.87552,"PORT CHARLOTTE 9.5 SW, FL US",0.9742,GHCND:US1FLCH0044,METERS,-82.202125
4.0,2021-11-06,2026-04-10,26.93445,"PORT CHARLOTTE 9.8 WSW, FL US",0.9196,GHCND:US1FLCH0046,METERS,-82.25716
6.4,2022-03-12,2026-04-09,27.030939,"HARBOUR HEIGHTS 3.0 NNW, FL US",0.9987,GHCND:US1FLCH0047,METERS,-82.031259
6.4,2022-06-03,2023-05-14,26.996759,"PORT CHARLOTTE 3.9 ENE, FL US",0.9855,GHCND:US1FLCH0050,METERS,-82.046606
3.4,2022-08-28,2026-04-10,26.9882661,"PORT CHARLOTTE 0.7 WNW, FL US",0.8714,GHCND:US1FLCH0051,METERS,-82.1189193
1.8,2023-12-01,2026-04-09,27.023073,"HARBOUR HEIGHTS 2.3 NNE, FL US",0.9977,GHCND:US1FLCH0054,METERS,-81.993119
19.2,2008-02-29,2015-12-31,30.28422,"KINARD 1.2 ENE, FL US",0.3793,GHCND:US1FLCN0001,METERS,-85.24408
38.1,2008-03-19,2009-12-04,30.4163,"CLARKSVILLE 1.7 SW, FL US",0.9633,GHCND:US1FLCN0002,METERS,-85.2065
7.9,2007-10-03,2010-12-06,26.21669,"NORTH NAPLES 7.3 E, FL US",0.2937,GHCND:US1FLCR0001,METERS,-81.66949
6.1,2007-10-07,2008-11-07,25.93956,"MARCO 0.2 SSE, FL US",0.902,GHCND:US1FLCR0003,METERS,-81.71539
13.1,2007-10-04,2016-04-26,26.256883,"NORTH NAPLES 4.8 NNE, FL US",0.8923,GHCND:US1FLCR0004,METERS,-81.745351
4.0,2007-10-06,2008-10-25,26.31825,"IMMOKALEE 10.9 SW, FL US",0.3601,GHCND:US1FLCR0005,METERS,-81.55917
7.0,2008-01-01,2011-05-01,26.134731,"NAPLES 0.7 SSW, FL US",0.8603,GHCND:US1FLCR0007,METERS,-81.798025
7.0,2008-08-25,2026-04-09,26.097565,"NAPLES 5.7 SE, FL US",0.9262,GHCND:US1FLCR0012,METERS,-81.722053
2.7,2008-08-22,2026-04-09,26.279769,"NAPLES PARK 3.7 ENE, FL US",0.8957,GHCND:US1FLCR0013,METERS,-81.758328
388.9,2008-09-27,2014-05-04,26.241416,"NORTH NAPLES 5.1 NE, FL US",0.2107,GHCND:US1FLCR0015,METERS,-81.720414
4.3,2009-05-18,2011-10-29,26.28293,"COLLIER 14.1 NE, FL US",0.7408,GHCND:US1FLCR0017,METERS,-81.62432
4.0,2011-05-29,2014-04-29,26.26779,"PALM RIVER 3.9 E, FL US",0.7488,GHCND:US1FLCR0024,METERS,-81.714825
2.7,2011-10-10,2015-05-19,26.16298,"NAPLES 1.4 NNW, FL US",0.6571,GHCND:US1FLCR0025,METERS,-81.8058
3.0,2011-10-02,2019-11-04,26.20535,"NAPLES 6.7 NE, FL US",0.8197,GHCND:US1FLCR0026,METERS,-81.71088
7.9,2012-03-09,2014-05-19,26.133372,"NAPLES 1.3 SE, FL US",0.4426,GHCND:US1FLCR0031,METERS,-81.77875
4.3,2012-07-24,2015-09-16,26.271556854248,"NORTH NAPLES 14.1 ENE, FL US",0.9913,GHCND:US1FLCR0032,METERS,-81.5737762451172
1.2,2014-03-27,2016-06-17,26.158364,"NAPLES 1.3 NW, FL US",0.957,GHCND:US1FLCR0034,METERS,-81.8093139
9.1,2014-10-24,2021-01-04,26.235972,"NAPLES 7.4 NNE, FL US",0.7475,GHCND:US1FLCR0037,METERS,-81.732528
1.2,2015-07-29,2022-06-21,26.0540208220482,"NAPLES 8.7 SE, FL US",0.0806,GHCND:US1FLCR0038,METERS,-81.6963750869036
7.0,2017-03-06,2023-04-30,26.2406063079834,"NAPLES 9.0 NE, FL US",0.2608,GHCND:US1FLCR0041,METERS,-81.697639465332
2.1,2017-05-01,2018-02-23,25.816577,"CHOKOLOSKEE 0.3 ENE, FL US",0.8127,GHCND:US1FLCR0042,METERS,-81.357293
5.8,2017-05-09,2018-06-27,26.302789,"NAPLES 11.0 N CLUBHOUSE, FL US",0.8,GHCND:US1FLCR0043,METERS,-81.76846
6.1,2017-05-09,2018-06-25,26.314005,"NAPLES 11.7 N NUMBER 17 NORTH, FL US",0.787,GHCND:US1FLCR0044,METERS,-81.780937
6.1,2017-05-09,2018-06-25,26.325612,"NAPLES 12.5 N NUMBER 9 NORTH, FL US",0.7797,GHCND:US1FLCR0045,METERS,-81.78131
6.1,2017-05-09,2018-06-26,26.310825,"NAPLES 11.5 N NUMBER 17 SOUTH, FL US",0.7874,GHCND:US1FLCR0046,METERS,-81.777256
6.4,2017-05-09,2018-06-26,26.315558,"NAPLES 12.0 N NUMBER 2 SOUTH, FL US",0.8116,GHCND:US1FLCR0047,METERS,-81.763369
6.1,2018-02-25,2020-01-06,26.075531,"NAPLES MANOR 2.3 E, FL US",0.9677,GHCND:US1FLCR0049,METERS,-81.685087
5.8,2018-12-01,2026-04-10,26.274447,"NAPLES 18.6 ENE, FL US",0.9405,GHCND:US1FLCR0052,METERS,-81.53183
7.6,2018-12-06,2026-04-10,26.26395,"NAPLES 16.6 ENE, FL US",0.9597,GHCND:US1FLCR0053,METERS,-81.56185
4.0,2019-04-11,2022-07-14,25.9285,"MARCO 1.1 SSE, FL US",0.8447,GHCND:US1FLCR0056,METERS,-81.7094
7.0,2019-05-10,2025-12-08,26.33286,"AVE MARIA 0.4 SE, FL US",0.452,GHCND:US1FLCR0057,METERS,-81.43394
8.8,2019-08-17,2026-04-09,26.22706,"NAPLES 11.8 ENE, FL US",0.9938,GHCND:US1FLCR0059,METERS,-81.62801
11.0,2019-12-21,2022-01-28,26.329188,"AVE MARIA 0.7 SE, FL US",0.5766,GHCND:US1FLCR0060,METERS,-81.431441
6.7,2020-02-06,2022-07-06,26.19639,"NAPLES 3.6 N, FL US",0.2676,GHCND:US1FLCR0061,METERS,-81.79446
4.3,2020-04-18,2026-04-10,26.16472,"GOLDEN GATE 2.2 SW, FL US",0.8319,GHCND:US1FLCR0062,METERS,-81.732433
3.0,2020-10-01,2024-10-10,26.03886,"MARCO ISLAND 6.6 NNE, FL US",0.24,GHCND:US1FLCR0063,METERS,-81.689149
10.7,2020-09-15,2025-10-17,25.999244,"NAPLES 11.9 SSE, FL US",0.9225,GHCND:US1FLCR0065,METERS,-81.692548
4.3,2020-11-24,2023-11-20,26.128961,"EAST NAPLES 0.9 NE, FL US",0.8526,GHCND:US1FLCR0066,METERS,-81.745789
7.3,2021-01-13,2026-04-09,26.306552,"AVE MARIA 2.3 SSW, FL US",0.3628,GHCND:US1FLCR0067,METERS,-81.450106
5.2,2022-02-15,2026-04-10,26.079146,"NAPLES MANOR 2.3 ENE, FL US",0.9763,GHCND:US1FLCR0071,METERS,-81.685906
3.7,2023-03-16,2024-07-02,26.274134,"PALM RIVER 3.7 E, FL US",0.2274,GHCND:US1FLCR0074,METERS,-81.716647
6.4,2023-11-21,2026-04-09,26.134157,"EAST NAPLES 2.0 ENE, FL US",0.868,GHCND:US1FLCR0075,METERS,-81.726818
0.6,2024-01-04,2026-04-10,26.108462,"NAPLES 2.9 SSE, FL US",0.8635,GHCND:US1FLCR0077,METERS,-81.772668
36.9,2007-09-28,2012-10-24,28.830315,"INVERNESS 1.6 WSW, FL US",0.8905,GHCND:US1FLCT0002,METERS,-82.368815
14.9,2007-11-09,2012-05-06,29.03754,"DUNNELLON 3.6 WSW, FL US",0.7928,GHCND:US1FLCT0005,METERS,-82.50587
7.9,2007-10-01,2010-02-05,28.968075,"CRYSTAL RIVER 5.2 NNE, FL US",0.9616,GHCND:US1FLCT0006,METERS,-82.557662
11.9,2007-10-11,2019-01-02,28.969336,"CRYSTAL RIVER 5.3 NNE, FL US",0.9946,GHCND:US1FLCT0007,METERS,-82.558675
27.1,2008-04-13,2026-04-10,28.870996,"CRYSTAL RIVER 4.7 ESE, FL US",0.8153,GHCND:US1FLCT0008,METERS,-82.527257
29.9,2008-10-11,2009-11-10,29.020597,"CITRUS SPRINGS 1.7 NNE, FL US",0.8308,GHCND:US1FLCT0010,METERS,-82.467858
23.2,2009-05-19,2026-04-10,28.92978,"HERNANDO 1.6 N, FL US",0.9867,GHCND:US1FLCT0011,METERS,-82.37039
34.4,2012-05-01,2018-10-29,29.0010604858398,"CITRUS SPRINGS 1.7 E, FL US",0.7594,GHCND:US1FLCT0012,METERS,-82.4476013183594
2.7,2013-06-27,2015-06-20,28.7924556732178,"HOMOSASSA 4.1 E, FL US",0.9586,GHCND:US1FLCT0013,METERS,-82.5521392822266
12.5,2014-10-15,2022-01-21,28.8582363128662,"INVERNESS 2.6 ENE, FL US",0.872,GHCND:US1FLCT0015,METERS,-82.3056335449219
2.7,2017-05-22,2020-07-16,28.85109,"HOMOSASSA 5.2 NNE, FL US",0.6571,GHCND:US1FLCT0023,METERS,-82.58742
23.2,2017-07-17,2024-01-11,28.91421,"HERNANDO 2.9 W, FL US",0.7063,GHCND:US1FLCT0024,METERS,-82.42147
32.0,2017-08-28,2019-05-07,28.852984,"LECANTO 1.9 E, FL US",0.5372,GHCND:US1FLCT0025,METERS,-82.45467
3.0,2018-08-08,2019-01-02,28.9128,"CRYSTAL RIVER 1.6 WNW, FL US",0.7635,GHCND:US1FLCT0028,METERS,-82.62123
7.0,2018-08-25,2026-04-10,28.73031,"HOMOSASSA 6.0 SE, FL US",0.8575,GHCND:US1FLCT0029,METERS,-82.53906
50.6,2019-04-30,2026-04-10,28.874131,"HERNANDO 4.4 WSW, FL US",0.9121,GHCND:US1FLCT0030,METERS,-82.441128
32.9,2020-01-01,2024-01-15,28.88158,"INVERNESS 4.4 NW, FL US",0.6653,GHCND:US1FLCT0031,METERS,-82.39709
35.4,2020-06-05,2024-05-21,28.93175,"BEVERLY HILLS 1.9 NE, FL US",0.8908,GHCND:US1FLCT0034,METERS,-82.44159
23.2,2020-07-27,2026-04-10,28.871665,"INVERNESS 4.7 WNW, FL US",0.916,GHCND:US1FLCT0035,METERS,-82.4114
14.3,2020-08-16,2022-08-31,28.81749,"INVERNESS 4.3 ESE, FL US",0.9893,GHCND:US1FLCT0036,METERS,-82.27695
33.8,2020-11-17,2025-09-02,29.005867,"CITRUS SPRINGS 1.3 WNW, FL US",0.9218,GHCND:US1FLCT0037,METERS,-82.493776
41.1,2021-02-23,2026-04-03,28.88278,"HERNANDO 3.9 WSW, FL US",0.7342,GHCND:US1FLCT0038,METERS,-82.43333
27.4,2021-03-10,2022-09-05,28.8794,"INVERNESS 4.8 NW, FL US",0.9817,GHCND:US1FLCT0039,METERS,-82.4076
6.7,2021-07-11,2026-04-10,28.852901,"HOMOSASSA 5.3 NNE, FL US",0.9879,GHCND:US1FLCT0041,METERS,-82.585779
19.5,2021-08-21,2025-06-14,28.970921,"HERNANDO 5.1 NNW, FL US",0.249,GHCND:US1FLCT0042,METERS,-82.416809
27.7,2021-10-01,2024-03-09,28.82267,"INVERNESS 1.3 SSE, FL US",0.9349,GHCND:US1FLCT0043,METERS,-82.333434
34.7,2023-05-07,2026-04-09,28.8222547,"INVERNESS 1.6 SE, FL US",0.9401,GHCND:US1FLCT0045,METERS,-82.3248198
39.9,2023-05-19,2026-04-09,28.86462,"INVERNESS 4.5 WNW, FL US",0.8931,GHCND:US1FLCT0046,METERS,-82.41139
19.2,2023-08-23,2024-12-20,28.85506,"INVERNESS 2.6 ENE, FL US",0.5021,GHCND:US1FLCT0047,METERS,-82.30403
3.0,2008-01-12,2026-04-09,30.0785,"FLEMING ISLAND 1.7 SE, FL US",0.8567,GHCND:US1FLCY0001,METERS,-81.6956
13.1,2007-11-03,2021-01-02,30.1044,"ORANGE PARK 4.8 SSW, FL US",0.9123,GHCND:US1FLCY0002,METERS,-81.736
35.1,2007-10-09,2024-09-12,29.81717,"KEYSTONE HEIGHTS 6.9 ENE, FL US",0.9905,GHCND:US1FLCY0003,METERS,-81.92745
7.0,2007-10-09,2017-07-19,30.088475,"LAKESIDE 2.9 S, FL US",0.9311,GHCND:US1FLCY0004,METERS,-81.759942
57.9,2007-10-08,2021-03-03,29.8362,"KEYSTONE HEIGHTS 7.6 ENE, FL US",0.9514,GHCND:US1FLCY0005,METERS,-81.924675
21.0,2007-10-27,2011-02-03,30.129951,"ORANGE PARK 4.7 SW, FL US",0.9808,GHCND:US1FLCY0006,METERS,-81.768697
39.0,2007-11-06,2026-04-10,29.798056,"KEYSTONE HEIGHTS 3.5 ENE, FL US",0.9897,GHCND:US1FLCY0007,METERS,-81.978811
14.0,2007-12-08,2016-12-11,30.180204,"ORANGE PARK 3.0 WNW, FL US",0.931,GHCND:US1FLCY0008,METERS,-81.752572
14.9,2007-11-03,2016-05-21,30.142325,"MIDDLEBURG 6.5 NNE, FL US",0.8895,GHCND:US1FLCY0009,METERS,-81.876139
4.0,2007-12-15,2018-10-01,30.177842,"ORANGE PARK 0.7 NNE, FL ",0.7001,GHCND:US1FLCY0010,METERS,-81.698154
24.1,2008-01-18,2017-03-14,30.138892,"MIDDLEBURG 6.3 NNE, FL US",0.6863,GHCND:US1FLCY0012,METERS,-81.87796
25.3,2008-02-12,2010-06-28,30.040635,"MIDDLEBURG 0.7 S, FL US",0.2558,GHCND:US1FLCY0013,METERS,-81.901187
49.1,2008-06-02,2020-08-12,29.86772,"KEYSTONE HEIGHTS 9.1 NE, FL US",0.8171,GHCND:US1FLCY0014,METERS,-81.920039
25.9,2008-06-08,2016-04-09,30.04031,"MIDDLEBURG 0.7 SSW, FL US",0.4502,GHCND:US1FLCY0017,METERS,-81.90652
0.6,2008-08-08,2020-04-04,29.901897,"GREEN COVE SPRINGS 6.8 SSE, FL US",0.977,GHCND:US1FLCY0019,METERS,-81.627703
3.0,2008-10-01,2011-02-14,30.10227,"ASBURY LAKE 5.4 NE, FL US",0.1361,GHCND:US1FLCY0021,METERS,-81.755712
34.4,2012-04-06,2015-09-30,29.7515,"KEYSTONE HEIGHTS 2.3 SSE, FL US",0.674,GHCND:US1FLCY0023,METERS,-82.0128
35.7,2017-03-01,2025-01-22,29.7667770385742,"KEYSTONE HEIGHTS 1.8 ESE, FL US",0.2402,GHCND:US1FLCY0024,METERS,-82.0078811645508
24.4,2012-06-22,2026-04-10,30.144849,"ORANGE PARK 4.1 WSW, FL US",0.8935,GHCND:US1FLCY0025,METERS,-81.766778
29.0,2014-01-26,2017-03-03,29.9086,"KEYSTONE HEIGHTS 12.9 NE, FL US",0.2392,GHCND:US1FLCY0029,METERS,-81.8776
1.5,2014-04-06,2021-07-03,30.075055,"FLEMING ISLAND 2.0 SE, FL US",0.1289,GHCND:US1FLCY0034,METERS,-81.694315
4.6,2014-04-18,2015-11-03,30.033763885498,"MIDDLEBURG 2.1 SE, FL US",0.9487,GHCND:US1FLCY0036,METERS,-81.8734283447266
4.9,2014-07-03,2024-01-30,30.06164,"FLEMING ISLAND 2.2 S, FL US",0.9814,GHCND:US1FLCY0037,METERS,-81.71337
41.5,2015-08-04,2026-04-10,29.859338,"KEYSTONE HEIGHTS 10.1 ENE, FL US",0.938,GHCND:US1FLCY0038,METERS,-81.891603
20.1,2015-08-14,2024-02-18,30.15172,"ORANGE PARK 2.5 WSW, FL US",0.7194,GHCND:US1FLCY0039,METERS,-81.742435
36.9,2016-01-10,2020-05-31,30.086134,"MIDDLEBURG 3.8 NW, FL US",0.1147,GHCND:US1FLCY0040,METERS,-81.949961
29.9,2016-11-17,2023-06-11,29.980955,"PENNEY FARMS 0.1 E, FL US",0.6751,GHCND:US1FLCY0041,METERS,-81.810151
20.4,2017-05-12,2026-04-10,30.00567,"GREEN COVE SPRINGS 2.6 WNW, FL US",0.7217,GHCND:US1FLCY0042,METERS,-81.71777
28.0,2018-07-30,2019-09-27,30.019475,"MIDDLEBURG 2.3 SSW, FL US",0.7929,GHCND:US1FLCY0048,METERS,-81.916382
69.2,2018-12-04,2021-12-22,29.84752,"KEYSTONE HEIGHTS 6.4 NE, FL US",0.8099,GHCND:US1FLCY0050,METERS,-81.961486
2.4,2019-03-14,2022-12-22,30.162792,"ORANGE PARK 0.5 SSW, FL US",0.8254,GHCND:US1FLCY0051,METERS,-81.709129
43.6,2020-03-12,2026-04-09,29.85054,"KEYSTONE HEIGHTS 9.7 ENE, FL US",0.9284,GHCND:US1FLCY0054,METERS,-81.89475
5.8,2020-06-02,2026-04-09,30.10802,"FLEMING ISLAND 1.3 NW, FL US",0.949,GHCND:US1FLCY0055,METERS,-81.7321
53.0,1998-06-17,2021-07-29,29.780083,"KEYSTONE HEIGHTS 1.0 E, FL US",0.0288,GHCND:US1FLCY0056,METERS,-82.016571
4.9,2020-06-02,2023-12-17,30.1054,"FLEMING ISLAND 1.3 NE, FL US",0.2233,GHCND:US1FLCY0057,METERS,-81.7027
3.4,2023-07-28,2026-04-10,30.08818,"MIDDLEBURG 8.9 ENE, FL US",0.913,GHCND:US1FLCY0064,METERS,-81.75957
17.1,2007-10-02,2019-06-08,27.1752,"ARCADIA 7.1 WSW, FL US",0.1556,GHCND:US1FLDS0001,METERS,-81.9644
7.9,2018-05-01,2026-04-10,27.039043,"LAKE SUZY 1.0 W, FL US",0.9859,GHCND:US1FLDS0003,METERS,-82.054567
11.0,2007-09-27,2011-11-20,30.3623,"JACKSONVILLE 6.2 ENE, FL US",0.847,GHCND:US1FLDV0001,METERS,-81.5592
11.0,2007-11-01,2016-12-14,30.33659,"JACKSONVILLE 7.5 E, FL US",0.6504,GHCND:US1FLDV0002,METERS,-81.532006
7.0,2007-10-10,2026-04-10,30.276483,"JACKSONVILLE 5.9 SW, FL US",0.9797,GHCND:US1FLDV0003,METERS,-81.730413
13.1,2007-10-03,2009-12-18,30.2312,"JACKSONVILLE 8.4 SSE, FL US",0.4183,GHCND:US1FLDV0004,METERS,-81.58215
4.0,2007-10-19,2008-08-25,30.3043,"JACKSONVILLE BEACH 4.2 WNW, FL US",0.7628,GHCND:US1FLDV0008,METERS,-81.4432
2.1,2007-10-01,2017-02-23,30.302524,"JACKSONVILLE BEACH 3.9 WNW, FL US",0.5929,GHCND:US1FLDV0009,METERS,-81.43956
11.0,2007-10-22,2008-09-01,30.293636,"JACKSONVILLE BEACH 3.7 WNW, FL US",0.4684,GHCND:US1FLDV0011,METERS,-81.439412
,2007-10-18,2024-07-19,30.321562,"NEPTUNE BEACH 0.5 NNW, FL US",0.9652,GHCND:US1FLDV0013,,-81.395639
4.9,2008-01-17,2016-01-17,30.310137,"JACKSONVILLE BEACH 4.4 WNW, FL US",0.9699,GHCND:US1FLDV0019,METERS,-81.443868
10.1,2007-11-25,2010-06-03,30.22164,"JACKSONVILLE 8.1 SSE, FL US",0.4252,GHCND:US1FLDV0020,METERS,-81.61826
18.0,2007-11-27,2021-11-19,30.356,"JACKSONVILLE 8.8 E, FL US",0.8582,GHCND:US1FLDV0021,METERS,-81.512
11.0,2008-01-10,2009-06-22,30.26848,"JACKSONVILLE BEACH 4.5 W, FL US",0.766,GHCND:US1FLDV0024,METERS,-81.454692
4.9,2008-03-24,2026-04-10,30.260754,"JACKSONVILLE 7.3 SW, FL US",0.4877,GHCND:US1FLDV0026,METERS,-81.744432
7.0,2008-03-26,2013-11-02,30.188363,"FRUIT COVE 6.1 N, FL US",0.1782,GHCND:US1FLDV0027,METERS,-81.601688
4.9,2008-05-04,2026-04-10,30.315674,"JACKSONVILLE 3.8 ESE, FL US",0.9011,GHCND:US1FLDV0028,METERS,-81.598511
7.0,2008-08-13,2021-03-23,30.314391,"JACKSONVILLE 11.4 ESE, FL US",0.9518,GHCND:US1FLDV0032,METERS,-81.467561
26.5,2008-09-01,2026-04-10,30.30437,"JACKSONVILLE 10.0 WSW, FL US",0.9813,GHCND:US1FLDV0033,METERS,-81.82263
4.0,2008-09-18,2025-05-12,30.294763,"JACKSONVILLE 4.8 SW, FL US",0.0367,GHCND:US1FLDV0034,METERS,-81.723677
6.4,2009-01-01,2014-01-13,30.321678,"JACKSONVILLE 3.2 ESE, FL US",0.6993,GHCND:US1FLDV0035,METERS,-81.605299
0.9,2009-04-13,2014-03-12,30.331761,"JACKSONVILLE 11.6 ENE, FL US",0.9499,GHCND:US1FLDV0036,METERS,-81.463092
10.4,2009-07-25,2019-08-12,30.5042291,"JACKSONVILLE 11.9 N, FL US",0.9771,GHCND:US1FLDV0037,METERS,-81.6203865
4.3,2009-08-23,2015-11-10,30.2744,"JACKSONVILLE BEACH 4.5 W, FL US",0.1607,GHCND:US1FLDV0038,METERS,-81.4567
21.0,2010-06-05,2026-04-10,30.235,"JACKSONVILLE 10.3 SW, FL US",0.9774,GHCND:US1FLDV0042,METERS,-81.78694444
11.3,2010-06-06,2013-09-05,30.343339,"JACKSONVILLE 5.6 E, FL US",0.436,GHCND:US1FLDV0043,METERS,-81.564514
6.7,2010-08-01,2012-06-16,30.229266,"JACKSONVILLE 11.4 SE, FL US",0.9942,GHCND:US1FLDV0044,METERS,-81.507888
4.9,2010-08-15,2016-07-01,30.30334,"JACKSONVILLE 12.1 ESE, FL US",0.9092,GHCND:US1FLDV0046,METERS,-81.4547
7.3,2010-08-17,2024-05-22,30.17049,"JACKSONVILLE 12.0 SSE, FL US",0.8874,GHCND:US1FLDV0047,METERS,-81.581833
25.0,2010-09-28,2019-02-12,30.29833333,"JACKSONVILLE 13.0 W, FL US",0.0893,GHCND:US1FLDV0049,METERS,-81.87111111
2.7,2010-11-02,2026-04-09,30.3848,"JACKSONVILLE 8.9 ENE, FL US",0.3379,GHCND:US1FLDV0050,METERS,-81.521
7.3,1998-06-17,2021-11-07,30.175,"JACKSONVILLE 12.0 SSE, FL US",0.3365,GHCND:US1FLDV0051,METERS,-81.5705
7.9,2011-07-10,2012-03-13,30.324959,"JACKSONVILLE 3.3 WSW, FL US",0.6935,GHCND:US1FLDV0053,METERS,-81.711615
6.1,2011-07-17,2014-12-24,30.416178,"JACKSONVILLE 10.4 WNW, FL US",0.8966,GHCND:US1FLDV0055,METERS,-81.804844
3.7,2011-08-03,2017-07-07,30.4717,"JACKSONVILLE 14.0 NE, FL US",0.464,GHCND:US1FLDV0056,METERS,-81.4855
8.5,2012-04-14,2023-08-18,30.375792,"JACKSONVILLE 4.2 NE, FL US",0.7671,GHCND:US1FLDV0059,METERS,-81.604721
3.7,2012-06-04,2020-09-13,30.16487,"JACKSONVILLE 11.8 S, FL US",0.0767,GHCND:US1FLDV0060,METERS,-81.63794
9.8,2012-08-05,2025-06-09,30.25855,"JACKSONVILLE 7.8 SW, FL US",0.8725,GHCND:US1FLDV0063,METERS,-81.754783
7.0,2012-10-23,2020-12-31,30.3016490936279,"JACKSONVILLE 4.2 ESE, FL US",0.9001,GHCND:US1FLDV0066,METERS,-81.5990524291992
7.9,2013-04-15,2016-10-08,30.13694190979,"FRUIT COVE 4.0 NE, FL US",0.5397,GHCND:US1FLDV0067,METERS,-81.566780090332
8.5,2013-04-29,2022-12-02,30.303307,"JACKSONVILLE 6.7 WSW, FL US",0.8979,GHCND:US1FLDV0069,METERS,-81.76355
3.4,2013-03-05,2014-02-12,30.3954048156738,"JACKSONVILLE 10.2 ENE, FL US",0.3536,GHCND:US1FLDV0070,METERS,-81.5008773803711
14.3,2013-10-05,2026-03-29,30.411,"JACKSONVILLE 11.3 WNW, FL US",0.567,GHCND:US1FLDV0071,METERS,-81.8252
4.9,2015-03-28,2017-09-13,30.513225,"JACKSONVILLE 13.3 NNE, FL US",0.4717,GHCND:US1FLDV0076,METERS,-81.572494
9.4,2016-09-23,2026-04-10,30.227373,"JACKSONVILLE 9.6 SE, FL US",0.9911,GHCND:US1FLDV0079,METERS,-81.55649
9.1,2018-01-03,2018-04-21,30.317208,"JACKSONVILLE 11.2 E, FL US",0.9266,GHCND:US1FLDV0086,METERS,-81.47087
10.7,2017-06-22,2026-04-09,30.483907,"JACKSONVILLE 10.6 NNW, FL US",0.9975,GHCND:US1FLDV0091,METERS,-81.701631
7.6,2018-03-22,2026-04-10,30.2991,"JACKSONVILLE 4.1 SW, FL US",0.9796,GHCND:US1FLDV0094,METERS,-81.7126
6.4,2018-04-01,2025-07-21,30.1148,"FRUIT COVE 5.9 E, FL US",0.6924,GHCND:US1FLDV0098,METERS,-81.5205
5.2,2019-04-19,2022-08-21,30.16431,"JACKSONVILLE 11.9 S, FL US",0.6658,GHCND:US1FLDV0106,METERS,-81.62642
10.4,2020-05-23,2020-10-31,30.31803,"JACKSONVILLE 5.0 WSW, FL US",0.7469,GHCND:US1FLDV0110,METERS,-81.73966
5.2,2020-05-19,2020-10-29,30.297407,"JACKSONVILLE BEACH 1.6 NNW, FL US",0.9817,GHCND:US1FLDV0111,METERS,-81.394971
8.8,2020-06-26,2023-11-03,30.2956,"JACKSONVILLE 4.5 SW, FL US",0.2471,GHCND:US1FLDV0112,METERS,-81.7184
9.4,2020-08-03,2021-03-22,30.186602,"FRUIT COVE 6.2 NNE, FL US",0.6595,GHCND:US1FLDV0113,METERS,-81.585503
11.0,2021-04-10,2023-08-28,30.1402,"JACKSONVILLE 14.4 SSE, FL US",0.9104,GHCND:US1FLDV0117,METERS,-81.5713
14.9,2021-08-11,2023-11-03,30.258324,"JACKSONVILLE 7.9 SE, FL US",0.7178,GHCND:US1FLDV0118,METERS,-81.558563
10.7,2022-04-16,2026-03-17,30.187077,"JACKSONVILLE 10.6 SSE, FL US",0.3317,GHCND:US1FLDV0120,METERS,-81.610667
6.1,2022-04-14,2026-04-10,30.29528,"JACKSONVILLE BEACH 1.7 NW, FL US",1.0,GHCND:US1FLDV0122,METERS,-81.40079
10.1,2022-07-20,2026-04-09,30.267271,"JACKSONVILLE 7.1 SW, FL US",0.3618,GHCND:US1FLDV0126,METERS,-81.748589
12.5,2023-08-15,2025-11-04,30.375798,"JACKSONVILLE 4.3 NE, FL US",0.9213,GHCND:US1FLDV0131,METERS,-81.604724
8.8,2023-12-07,2024-05-31,30.49143,"JACKSONVILLE 11.0 N, FL US",0.9887,GHCND:US1FLDV0132,METERS,-81.62246
10.4,2024-04-29,2026-04-10,30.193772,"ORANGE PARK 5.9 ENE, FL US",0.9789,GHCND:US1FLDV0133,METERS,-81.609583
11.3,2015-07-09,2021-07-14,29.644008,"CROSS CITY 4.7 E, FL US",0.8594,GHCND:US1FLDX0002,METERS,-83.047261
11.0,2018-08-02,2022-08-28,29.657909,"OLD TOWN 4.9 NW, FL US",0.5141,GHCND:US1FLDX0003,METERS,-83.033173
8.5,2020-09-09,2021-01-08,29.6385158,"OLD TOWN 2.9 NNW, FL US",0.8525,GHCND:US1FLDX0004,METERS,-83.005373
14.0,2007-06-29,2013-10-17,30.3258,"WEST PENSACOLA 10.9 SW, FL US",0.9453,GHCND:US1FLES0002,METERS,-87.4089
48.2,2007-10-03,2019-12-17,30.60403,"GONZALEZ 2.5 NNW, FL US",0.9827,GHCND:US1FLES0004,METERS,-87.31218
25.9,2007-10-03,2012-11-07,30.481865,"BELLVIEW 1.7 NW, FL US",0.9195,GHCND:US1FLES0005,METERS,-87.333051
38.1,2007-10-27,2016-01-10,30.682642,"MOLINO 2.7 SSW, FL US",0.0334,GHCND:US1FLES0008,METERS,-87.341889
32.3,2008-02-06,2015-07-05,30.499967,"PENSACOLA 3.8 N, FL US",0.9627,GHCND:US1FLES0010,METERS,-87.189409
29.6,2008-06-01,2013-08-01,30.53628,"ENSLEY 2.1 ENE, FL US",0.6674,GHCND:US1FLES0013,METERS,-87.24241
21.9,2010-01-17,2026-04-09,30.568513,"GONZALEZ 2.1 E, FL US",0.997,GHCND:US1FLES0015,METERS,-87.254739
22.9,2010-03-29,2017-06-14,30.513683,"PENSACOLA 4.8 N, FL US",0.3594,GHCND:US1FLES0016,METERS,-87.175783
81.1,2010-03-19,2012-08-30,30.987331,"CENTURY 9.4 W, FL US",0.6205,GHCND:US1FLES0017,METERS,-87.419408
25.0,2013-04-05,2015-09-06,30.514196395874,"PENSACOLA 9.2 NW, FL US",0.8972,GHCND:US1FLES0021,METERS,-87.3230133056641
4.0,2014-05-15,2026-04-06,30.312955,"PENSACOLA 18.9 WSW, FL US",0.9919,GHCND:US1FLES0024,METERS,-87.467244
11.9,2014-05-29,2016-02-24,30.543734,"PENSACOLA 7.3 NNW, FL US",0.3297,GHCND:US1FLES0025,METERS,-87.231272
33.8,2014-07-10,2022-11-01,30.466405,"PENSACOLA 1.9 NE, FL US",0.9891,GHCND:US1FLES0026,METERS,-87.171483
36.3,2017-03-24,2024-10-18,30.53197,"PENSACOLA 13.5 WNW, FL US",0.6034,GHCND:US1FLES0035,METERS,-87.39213
27.7,2017-04-12,2018-06-16,30.47019,"PENSACOLA 2.3 NE, FL US",0.5267,GHCND:US1FLES0037,METERS,-87.16594
36.0,2015-05-05,2020-01-01,30.52816,"PENSACOLA 9.2 NW, FL US",0.5672,GHCND:US1FLES0038,METERS,-87.30888
69.5,2017-04-07,2024-01-15,30.96403,"CENTURY 12.1 W, FL US",0.9503,GHCND:US1FLES0039,METERS,-87.46575
4.9,2017-03-29,2019-09-28,30.3315,"PENSACOLA 12.5 SW, FL US",0.9836,GHCND:US1FLES0041,METERS,-87.353
33.2,2017-04-12,2022-12-20,30.534554,"PENSACOLA 7.0 NNW, FL US",0.5849,GHCND:US1FLES0045,METERS,-87.244034
25.6,2017-10-07,2026-04-06,30.42412,"PENSACOLA 2.4 SW, FL US",0.1981,GHCND:US1FLES0048,METERS,-87.22232
1.2,2017-09-29,2020-09-14,30.34446,"PENSACOLA BEACH 3.8 ENE, FL ",0.3346,GHCND:US1FLES0049,METERS,-87.08788
40.8,2018-05-01,2019-06-25,30.512989,"PENSACOLA 5.5 NNW, FL US",0.9074,GHCND:US1FLES0051,METERS,-87.236214
27.7,2019-05-08,2022-07-20,30.512522,"PENSACOLA 4.7 N, FL US",0.465,GHCND:US1FLES0053,METERS,-87.181047
34.7,2020-07-04,2026-04-07,30.5366,"PENSACOLA 6.4 N, FL US",0.972,GHCND:US1FLES0054,METERS,-87.207
36.0,2020-07-28,2026-04-06,30.507376,"PENSACOLA 12.4 WNW, FL US",0.9702,GHCND:US1FLES0055,METERS,-87.383898
27.4,2020-10-25,2026-04-10,30.43613,"PENSACOLA 1.0 SW, FL US",0.9373,GHCND:US1FLES0056,METERS,-87.20328
23.8,2021-01-19,2026-04-10,30.43,"PENSACOLA 1.2 SSW, FL US",0.9277,GHCND:US1FLES0058,METERS,-87.200278
31.7,2021-03-07,2025-08-14,30.5625117,"PENSACOLA 9.4 NNW, FL US",0.6874,GHCND:US1FLES0059,METERS,-87.2693913
12.2,2021-03-06,2026-04-09,30.33739,"PENSACOLA 12.3 SW, FL US",0.7695,GHCND:US1FLES0062,METERS,-87.35438
34.1,2021-03-24,2024-01-08,30.526942,"ENSLEY 1.6 W, FL US",0.4848,GHCND:US1FLES0063,METERS,-87.303208
35.1,2021-07-16,2022-06-02,30.526468,"ENSLEY 2.1 W, FL US",0.7578,GHCND:US1FLES0064,METERS,-87.311222
3.0,2022-03-31,2023-02-20,30.4088,"PENSACOLA 2.8 SSW, FL US",0.3914,GHCND:US1FLES0065,METERS,-87.2125
13.4,2022-03-30,2025-03-16,30.41959,"PENSACOLA 2.1 SW, FL US",0.1958,GHCND:US1FLES0066,METERS,-87.20957
50.6,2022-01-05,2026-04-06,30.677,"CANTONMENT 5.3 NNW, FL US",0.8558,GHCND:US1FLES0067,METERS,-87.378
9.1,2023-04-08,2026-04-10,30.330356,"PENSACOLA 14.2 SW, FL US",0.9754,GHCND:US1FLES0070,METERS,-87.386389
18.3,2024-04-12,2026-03-25,30.443333,"PENSACOLA 0.2 SW, FL US",0.9158,GHCND:US1FLES0071,METERS,-87.191667
4.9,2007-10-03,2008-12-15,29.396187,"BUNNELL 7.7 SW, FL US",0.8182,GHCND:US1FLFL0002,METERS,-81.357697
7.6,2009-08-17,2017-05-19,29.568,"PALM COAST 1.7 W, FL US",0.1412,GHCND:US1FLFL0008,METERS,-81.243
7.3,2009-12-10,2011-12-13,29.488575,"PALM COAST 5.9 SSW, FL US",0.3787,GHCND:US1FLFL0009,METERS,-81.240154
5.8,2014-10-19,2026-04-09,29.472222,"BUNNELL 1.0 ENE, FL US",0.361,GHCND:US1FLFL0019,METERS,-81.243889
1.5,2015-08-02,2025-07-02,29.56626,"PALM COAST 0.6 ESE, FL US",0.1261,GHCND:US1FLFL0021,METERS,-81.20536
5.8,2016-07-26,2021-09-11,29.459171295166,"BUNNELL 7.7 W, FL US",0.6148,GHCND:US1FLFL0023,METERS,-81.3858947753906
2.1,2016-07-01,2026-04-09,29.59963,"PALM COAST 2.1 NNE, FL US",0.9756,GHCND:US1FLFL0024,METERS,-81.20458
7.3,2016-08-26,2019-10-04,29.486515,"PALM COAST 5.9 S, FL US",0.9093,GHCND:US1FLFL0025,METERS,-81.225692
6.7,2017-05-22,2020-07-12,29.5439272,"PALM COAST 1.9 S, FL US",0.946,GHCND:US1FLFL0026,METERS,-81.2156825
10.1,2015-11-02,2026-03-22,29.601009,"PALM COAST 3.5 NW, FL US",0.0907,GHCND:US1FLFL0027,METERS,-81.260948
13.7,2018-03-29,2026-04-10,29.51611,"PALM COAST 4.2 SSW, FL US",0.9765,GHCND:US1FLFL0030,METERS,-81.24503
16.8,2018-03-31,2026-04-10,29.59384,"PALM COAST 1.9 NNE, FL US",0.9918,GHCND:US1FLFL0032,METERS,-81.19681
6.1,2018-04-04,2026-04-10,29.456418,"FLAGLER BEACH 1.3 SE, FL US",0.9918,GHCND:US1FLFL0033,METERS,-81.116289
4.6,2018-04-04,2021-12-06,29.597231,"PALM COAST 1.8 N, FL US",0.9099,GHCND:US1FLFL0035,METERS,-81.220062
9.4,2018-03-28,2026-04-09,29.592,"PALM COAST 2.4 NE, FL US",0.3547,GHCND:US1FLFL0036,METERS,-81.1828
10.1,2018-04-07,2024-12-06,29.517738,"PALM COAST 3.9 SSW, FL US",0.9163,GHCND:US1FLFL0037,METERS,-81.235001
9.1,2018-04-16,2026-04-09,29.512287,"PALM COAST 4.1 S, FL US",0.466,GHCND:US1FLFL0038,METERS,-81.212819
6.1,2018-04-05,2026-04-10,29.44176,"FLAGLER BEACH 2.3 SSE, FL US",0.8952,GHCND:US1FLFL0039,METERS,-81.1106
11.0,2018-05-07,2026-04-10,29.58079,"PALM COAST 0.8 NNW, FL US",0.9883,GHCND:US1FLFL0040,METERS,-81.22079
10.4,2018-04-27,2019-03-04,29.55885,"PALM COAST 2.5 WSW, FL US",0.5769,GHCND:US1FLFL0041,METERS,-81.25367
13.1,2018-05-23,2021-10-10,29.493861,"PALM COAST 5.7 SSW, FL US",0.8989,GHCND:US1FLFL0042,METERS,-81.245204
9.4,1998-06-17,2026-04-10,29.4504,"PALM COAST 8.3 S, FL US",0.2365,GHCND:US1FLFL0043,METERS,-81.2156
12.2,2019-04-29,2026-04-10,29.5135373,"PALM COAST 4.5 SSW, FL US",0.8657,GHCND:US1FLFL0047,METERS,-81.2507217
7.3,2020-03-13,2026-04-09,29.544003,"PALM COAST 1.9 S, FL US",0.8896,GHCND:US1FLFL0049,METERS,-81.21661
19.8,2020-08-30,2026-04-09,29.54405,"PALM COAST 2.4 SW, FL US",0.8087,GHCND:US1FLFL0050,METERS,-81.2398
10.4,2022-10-28,2026-03-16,29.61347,"PALM COAST 4.6 NW, FL US",0.5267,GHCND:US1FLFL0053,METERS,-81.27258
4.6,2001-10-11,2013-07-24,29.8528749,"CARRABELLE 0.4 NE, FL US",0.2924,GHCND:US1FLFR0001,METERS,-84.6657798
5.5,2013-05-06,2024-07-21,29.731,"APALACHICOLA 0.8 WNW, FL US",0.8777,GHCND:US1FLFR0002,METERS,-85.007
1.8,2016-08-26,2021-10-26,29.7627449035645,"EASTPOINT 1.4 NW, FL US",0.8353,GHCND:US1FLFR0003,METERS,-84.8865966796875
1.2,2002-07-02,2018-11-06,29.658948,"ST. GEORGE ISLAND 2.2 ENE, FL US",0.1092,GHCND:US1FLFR0006,METERS,-84.880928
3.0,2018-08-29,2023-09-12,29.670924,"EASTPOINT 5.8 SSE, FL US",0.6399,GHCND:US1FLFR0008,METERS,-84.841815
24.1,2007-10-06,2020-08-31,29.67172,"TRENTON 8.0 ENE, FL US",0.4779,GHCND:US1FLGC0001,METERS,-82.7014
26.5,2009-02-12,2026-04-09,29.676548,"NEWBERRY 4.0 WNW, FL US",0.7774,GHCND:US1FLGC0003,METERS,-82.668717
27.4,2009-03-01,2015-12-27,29.612426,"TRENTON 7.3 E, FL US",0.6225,GHCND:US1FLGC0005,METERS,-82.695036
14.9,2011-07-01,2026-04-10,29.656267,"TRENTON 4.0 NW, FL US",0.8725,GHCND:US1FLGC0008,METERS,-82.862753
27.7,2023-12-17,2026-04-10,29.63258,"TRENTON 7.0 E, FL US",0.9669,GHCND:US1FLGC0012,METERS,-82.70164
64.9,2007-09-20,2026-04-10,30.524685,"QUINCY 6.0 SW, FL US",0.8048,GHCND:US1FLGD0001,METERS,-84.658601
85.0,2008-01-28,2025-03-21,30.582286,"HAVANA 4.2 SW, FL US",0.9305,GHCND:US1FLGD0002,METERS,-84.467118
73.2,2009-04-06,2026-04-10,30.529356,"QUINCY 6.0 SW, FL US",0.7892,GHCND:US1FLGD0003,METERS,-84.662083
57.9,2012-02-11,2026-03-25,30.481636,"QUINCY 7.5 SSW, FL US",0.829,GHCND:US1FLGD0004,METERS,-84.618846
80.5,2013-04-04,2016-06-13,30.675564,"HAVANA 3.9 NNE, FL US",0.8903,GHCND:US1FLGD0005,METERS,-84.389845
79.9,2014-10-27,2024-11-20,30.687286,"QUINCY 8.3 NNW, FL US",0.131,GHCND:US1FLGD0006,METERS,-84.657043
64.6,2017-10-01,2026-04-09,30.56082,"HAVANA 5.1 SSW, FL US",0.9872,GHCND:US1FLGD0007,METERS,-84.45871
31.7,2019-04-10,2019-11-20,30.434533,"QUINCY 10.4 S, FL US",0.92,GHCND:US1FLGD0008,METERS,-84.60365
78.0,2021-10-17,2025-12-19,30.5516,"QUINCY 7.8 WSW, FL US",0.7738,GHCND:US1FLGD0009,METERS,-84.7093
58.2,2023-06-09,2026-04-10,30.6781273,"HAVANA 5.5 NE, FL US",0.9489,GHCND:US1FLGD0011,METERS,-84.3469985
3.0,2008-03-01,2013-08-16,29.80327,"PORT ST. JOE 0.6 SE, FL US",0.19,GHCND:US1FLGF0001,METERS,-85.288486
10.1,2008-04-19,2012-02-18,30.098858,"WEWAHITCHKA 1.6 SW, FL US",0.9372,GHCND:US1FLGF0002,METERS,-85.217127
3.4,2012-08-28,2015-01-14,29.9072799682617,"PORT ST. JOE 8.1 NNW, FL US",0.5425,GHCND:US1FLGF0003,METERS,-85.3699798583984
6.7,2020-08-09,2026-04-06,30.108056,"WEWAHITCHKA 1.0 ESE, FL US",0.7131,GHCND:US1FLGF0007,METERS,-85.179722
4.0,2009-08-26,2018-01-04,26.7967,"MOORE HAVEN 12.2 WSW, FL US",0.8572,GHCND:US1FLGL0002,METERS,-81.291
11.3,2009-07-02,2017-03-12,26.821053,"LA BELLE 6.2 NW, FL US",0.5987,GHCND:US1FLGL0004,METERS,-81.508107
4.3,2009-07-24,2010-04-28,26.798056,"MOORE HAVEN 12.4 WSW, FL US",0.4516,GHCND:US1FLGL0006,METERS,-81.294722
11.9,2009-07-20,2023-06-15,26.820574,"LA BELLE 4.5 NNW, FL US",0.9679,GHCND:US1FLGL0007,METERS,-81.4495
4.6,2009-02-06,2012-10-18,27.128379,"BUCKHEAD RIDGE 0.6 SW, FL US",0.795,GHCND:US1FLGL0010,METERS,-80.894051
3.0,2009-10-12,2013-08-03,26.7850085,"LA BELLE 5.9 ENE, FL US",0.8563,GHCND:US1FLGL0012,METERS,-81.347791
4.3,2013-09-02,2026-03-17,26.98383611,"MOORE HAVEN 10.4 N, FL US",0.3721,GHCND:US1FLGL0013,METERS,-81.098425
39.3,2007-10-06,2026-04-10,28.066173,"PLANT CITY 6.5 NW, FL US",0.773,GHCND:US1FLHB0001,METERS,-82.209836
21.9,2007-09-30,2009-07-15,27.8405,"RIVERVIEW 3.4 SE, FL US",0.9374,GHCND:US1FLHB0002,METERS,-82.2723
16.2,2007-10-02,2019-10-30,27.929363,"VALRICO 1.1 SE, FL US",0.9248,GHCND:US1FLHB0003,METERS,-82.228964
32.9,2007-09-28,2026-04-09,27.9125,"VALRICO 2.2 SE, FL US",0.9999,GHCND:US1FLHB0004,METERS,-82.2261
15.5,2007-09-25,2023-10-16,28.08232,"CITRUS PARK 1.3 ENE, FL US",0.993,GHCND:US1FLHB0005,METERS,-82.549328
25.0,2007-10-01,2009-02-15,27.8492,"RIVERVIEW 3.3 ESE, FL US",0.9623,GHCND:US1FLHB0006,METERS,-82.2687
11.9,2007-10-01,2009-09-14,28.04725,"TAMPA 8.4 NW, FL US",0.2517,GHCND:US1FLHB0007,METERS,-82.536905
2.1,2007-09-28,2026-04-09,27.885885,"TAMPA 5.1 S, FL US",0.9941,GHCND:US1FLHB0010,METERS,-82.489524
18.9,2007-09-27,2014-06-02,27.874018,"BLOOMINGDALE 0.8 ESE, FL US",0.9652,GHCND:US1FLHB0011,METERS,-82.247784
18.9,2008-01-19,2015-09-06,28.051241,"CARROLLWOOD 0.5 WNW, FL US",0.2253,GHCND:US1FLHB0012,METERS,-82.501192
17.1,2007-09-27,2022-08-25,27.86801,"BLOOMINGDALE 1.3 ESE, FL US",0.076,GHCND:US1FLHB0014,METERS,-82.24052
13.1,2007-09-30,2014-12-08,27.9026,"BRANDON 2.1 SSW, FL US",0.997,GHCND:US1FLHB0015,METERS,-82.3061
50.0,2007-10-02,2022-04-01,28.00876,"PLANT CITY 3.4 E, FL US",0.3049,GHCND:US1FLHB0016,METERS,-82.07244
21.0,2007-10-03,2026-01-08,27.7305,"SUN CITY CENTER 1.0 NE, FL US",0.9813,GHCND:US1FLHB0017,METERS,-82.3384
32.9,2007-10-15,2010-02-06,27.83225,"BLOOMINGDALE 5.5 SE, FL US",0.7057,GHCND:US1FLHB0020,METERS,-82.185475
32.0,2007-11-15,2008-04-28,27.839123,"BLOOMINGDALE 3.1 SSE, FL US",0.9096,GHCND:US1FLHB0022,METERS,-82.2339
11.0,2007-10-07,2016-02-26,27.827668,"GIBSONTON 1.5 SE, FL US",0.8914,GHCND:US1FLHB0023,METERS,-82.350314
18.0,2007-10-09,2015-07-07,28.0357,"CARROLLWOOD 1.7 SE, FL US",0.8526,GHCND:US1FLHB0025,METERS,-82.4706
27.1,2007-10-02,2019-07-30,28.162474,"LUTZ 2.1 NE, FL US",0.822,GHCND:US1FLHB0026,METERS,-82.440416
25.9,2007-10-02,2026-04-10,28.122804,"LUTZ 1.3 SSE, FL US",0.9228,GHCND:US1FLHB0027,METERS,-82.45308
15.8,2007-10-15,2010-08-22,28.005935,"WEST PARK 0.4 S, FL US",0.8552,GHCND:US1FLHB0028,METERS,-82.515605
27.1,2007-10-16,2026-04-10,28.03011,"TAMPA 6.5 NNE, FL US",0.9381,GHCND:US1FLHB0029,METERS,-82.40623
13.1,2007-10-16,2011-06-12,27.721893,"SUN CITY CENTER 0.9 W, FL US",0.9701,GHCND:US1FLHB0032,METERS,-82.366744
32.0,2007-10-03,2026-04-08,27.828269,"BLOOMINGDALE 7.6 ESE, FL US",0.9525,GHCND:US1FLHB0033,METERS,-82.148655
23.2,2007-10-16,2009-08-14,28.147479,"LUTZ 3.2 W, FL US",0.9283,GHCND:US1FLHB0034,METERS,-82.51498
11.9,2007-10-14,2024-08-05,27.903452,"TAMPA 4.4 SSW, FL US",0.207,GHCND:US1FLHB0036,METERS,-82.516038
29.0,2007-10-06,2023-08-31,28.135757,"LUTZ 2.0 E, FL US",0.9785,GHCND:US1FLHB0037,METERS,-82.430417
14.9,2007-08-17,2010-03-13,28.0227,"CARROLLWOOD 2.0 SSE, FL US",0.4543,GHCND:US1FLHB0039,METERS,-82.482906
25.9,2007-10-15,2024-02-19,28.082426,"UNIVERSITY WEST 2.0 WNW, FL US",0.8845,GHCND:US1FLHB0040,METERS,-82.464012
1.2,2007-11-25,2008-11-02,27.685435,"RUSKIN 2.0 S, FL US",0.9419,GHCND:US1FLHB0041,METERS,-82.435059
46.0,2007-10-06,2015-08-10,27.97899,"PLANT CITY 1.9 S, FL US",0.9759,GHCND:US1FLHB0042,METERS,-82.127199
11.3,2007-10-12,2016-10-08,27.969046,"BRANDON 2.7 N, FL US",0.7717,GHCND:US1FLHB0043,METERS,-82.292656
17.1,2007-10-01,2026-04-10,27.705656,"RUSKIN 1.8 ESE, FL US",0.996,GHCND:US1FLHB0044,METERS,-82.400519
44.5,2007-10-13,2010-02-06,27.98203,"PLANT CITY 1.9 SSW, FL US",0.6156,GHCND:US1FLHB0045,METERS,-82.1452117
17.1,2007-11-24,2019-10-27,27.784776,"APOLLO BEACH 3.0 ENE, FL US",0.3687,GHCND:US1FLHB0046,METERS,-82.361073
13.7,2007-11-02,2013-03-23,27.889679,"BLOOMINGDALE 3.3 ENE, FL US",0.6628,GHCND:US1FLHB0047,METERS,-82.207096
25.9,2007-10-01,2026-04-10,28.107081,"GREATER NORTHDALE 0.4 ENE, FL US",0.9976,GHCND:US1FLHB0048,METERS,-82.513162
11.6,2007-11-01,2011-06-21,27.6972,"SUN CITY CENTER 2.2 SW, FL US",0.9187,GHCND:US1FLHB0050,METERS,-82.3744
25.9,2007-11-01,2026-04-10,28.11046,"LUTZ 2.2 SSE, FL US",0.9745,GHCND:US1FLHB0051,METERS,-82.446
32.9,2007-11-07,2009-05-31,27.923102,"BRANDON 2.7 E, FL US",0.8934,GHCND:US1FLHB0052,METERS,-82.248112
9.8,2008-01-01,2017-09-24,27.9036,"BRANDON 2.6 SW, FL US",0.5052,GHCND:US1FLHB0054,METERS,-82.3227
15.8,2007-12-24,2025-07-19,28.0126,"TAMPA 5.0 NNE, FL US",0.9855,GHCND:US1FLHB0055,METERS,-82.4155
16.8,2008-04-20,2013-04-23,28.165621,"LUTZ 4.2 WNW, FL US",0.9874,GHCND:US1FLHB0057,METERS,-82.524609
23.2,2009-04-28,2026-04-10,27.905798,"VALRICO 2.8 SSE, FL US",0.2749,GHCND:US1FLHB0060,METERS,-82.241059
13.7,2009-09-30,2013-11-21,28.040484,"TAMPA 4.7 NW, FL US",0.6229,GHCND:US1FLHB0064,METERS,-82.489702
39.9,2010-05-06,2025-08-02,27.949071,"TAMPA 22.3 E, FL US",0.3315,GHCND:US1FLHB0068,METERS,-82.093771
13.1,2010-06-28,2026-04-10,27.8658,"RIVERVIEW 2.1 W, FL US",0.6526,GHCND:US1FLHB0069,METERS,-82.3507
1.5,2010-07-19,2016-03-14,28.05047,"OLDSMAR 2.1 E, FL US",0.1118,GHCND:US1FLHB0070,METERS,-82.635933
10.4,2010-09-09,2013-06-02,28.037718,"TAMPA 6.1 N, FL US",0.6052,GHCND:US1FLHB0071,METERS,-82.468445
16.5,2011-08-27,2012-07-02,28.063493,"TAMPA 7.9 N, FL US",0.9968,GHCND:US1FLHB0087,METERS,-82.479853
12.5,2012-07-14,2019-09-19,28.0765,"TAMPA 10.2 NNW, FL US",0.1513,GHCND:US1FLHB0090,METERS,-82.5482
12.2,2013-02-08,2018-02-05,28.025817,"TEMPLE TERRACE 1.5 SE, FL US",0.5022,GHCND:US1FLHB0093,METERS,-82.367522
1.8,2013-06-30,2016-08-01,27.881501,"TAMPA 5.9 SSW, FL US",0.3632,GHCND:US1FLHB0096,METERS,-82.523433
14.3,2013-08-19,2019-08-20,27.810165,"RIVERVIEW 4.4 SSW, FL US",0.9681,GHCND:US1FLHB0097,METERS,-82.339151
13.4,2013-08-19,2026-04-10,27.80473,"RIVERVIEW 4.8 SSW, FL US",0.9998,GHCND:US1FLHB0098,METERS,-82.34099
13.7,2014-03-21,2016-06-07,28.1286544799805,"TAMPA 13.8 NNE, FL US",0.5494,GHCND:US1FLHB0103,METERS,-82.3534088134766
18.9,2014-09-07,2024-06-26,27.708626,"SUN CITY CENTER 0.9 SSE, FL US",0.9092,GHCND:US1FLHB0107,METERS,-82.348262
2.7,2015-03-27,2016-12-09,27.894653,"TAMPA 5.2 SSW, FL US",0.2885,GHCND:US1FLHB0108,METERS,-82.525741
1.8,2015-04-30,2015-08-28,27.877191,"TAMPA 5.7 S, FL US",0.9091,GHCND:US1FLHB0110,METERS,-82.489551
3.0,2015-06-01,2021-05-06,27.8902,"TAMPA 4.8 SW, FL US",0.9705,GHCND:US1FLHB0112,METERS,-82.4907
3.4,2015-07-26,2017-07-31,27.769660949707,"APOLLO BEACH 0.7 ESE, FL US",0.2388,GHCND:US1FLHB0113,METERS,-82.3977432250977
7.0,2015-07-01,2026-04-09,27.8735122680664,"RIVERVIEW 0.9 ENE, FL US",0.9797,GHCND:US1FLHB0114,METERS,-82.3028869628906
2.1,2015-11-01,2020-03-13,27.9951934814453,"TAMPA 6.1 WNW, FL US",0.294,GHCND:US1FLHB0115,METERS,-82.5739669799805
21.3,2016-08-29,2026-04-10,28.134079,"LUTZ 0.6 WSW, FL US",0.2816,GHCND:US1FLHB0116,METERS,-82.471878
9.4,2017-03-01,2019-01-29,27.89,"RIVERVIEW 1.4 N, FL US",0.8786,GHCND:US1FLHB0119,METERS,-82.314
20.4,2017-04-02,2024-06-25,28.063226,"TAMPA 7.9 N, FL US",0.9092,GHCND:US1FLHB0120,METERS,-82.479851
27.7,2017-05-01,2017-10-23,27.79903,"RIVERVIEW 4.9 S, FL US",1.0,GHCND:US1FLHB0122,METERS,-82.316107
17.7,2018-01-04,2026-04-08,28.09391,"THONOTOSASSA 3.6 NE, FL US",0.2877,GHCND:US1FLHB0123,METERS,-82.25614
15.5,2017-05-25,2018-08-16,27.715237,"SUN CITY CENTER 0.4 S, FL US",0.3497,GHCND:US1FLHB0127,METERS,-82.352706
10.1,2017-05-05,2026-04-08,27.70357,"RUSKIN 2.1 SE, FL US",0.3116,GHCND:US1FLHB0128,METERS,-82.40661
11.9,2017-06-10,2022-10-15,27.7822,"APOLLO BEACH 2.7 ENE, FL US",0.9995,GHCND:US1FLHB0130,METERS,-82.3645
14.0,2018-03-06,2021-09-02,27.744775,"SUN CITY CENTER 1.8 NNE, FL US",0.7619,GHCND:US1FLHB0134,METERS,-82.337738
14.6,2018-03-09,2026-04-10,27.903022,"BRANDON 2.8 SW, FL US",0.5949,GHCND:US1FLHB0136,METERS,-82.326364
10.1,2018-04-07,2025-07-04,27.93824,"TAMPA 2.0 SW, FL US",0.2933,GHCND:US1FLHB0138,METERS,-82.5047
19.5,2018-05-18,2023-05-10,27.7087,"SUN CITY CENTER 0.9 S, FL US",0.9918,GHCND:US1FLHB0139,METERS,-82.3539
18.0,2018-05-26,2026-04-10,28.086432,"GREATER NORTHDALE 1.2 S, FL US",1.0,GHCND:US1FLHB0140,METERS,-82.515349
16.8,2018-06-30,2026-04-09,28.068676,"CARROLLWOOD 1.3 N, FL US",0.975,GHCND:US1FLHB0141,METERS,-82.496521
20.7,2018-08-10,2026-04-10,28.1648,"ZEPHYRHILLS 8.8 SW, FL US",0.3335,GHCND:US1FLHB0142,METERS,-82.2965
2.4,2018-08-09,2024-12-31,27.91349,"TAMPA 3.7 SSW, FL US",0.4104,GHCND:US1FLHB0143,METERS,-82.5136
25.3,2019-03-02,2019-10-20,27.8390839895795,"BLOOMINGDALE 4.4 SE, FL US",0.5365,GHCND:US1FLHB0146,METERS,-82.2021037129401
1.2,2019-04-01,2021-05-22,27.8479,"TAMPA 7.7 S, FL US",0.9068,GHCND:US1FLHB0147,METERS,-82.4766
4.9,2019-04-06,2019-12-11,27.720787,"RUSKIN 0.6 NE, FL US",0.952,GHCND:US1FLHB0149,METERS,-82.422725
14.0,2019-07-07,2025-06-30,27.90045,"RIVERVIEW 2.1 NNW, FL US",0.2575,GHCND:US1FLHB0150,METERS,-82.324736
0.9,2019-08-02,2024-09-25,27.999132,"TAMPA 6.9 WNW, FL US",0.3098,GHCND:US1FLHB0152,METERS,-82.585745
11.9,2019-08-13,2025-09-08,27.7377,"SUN CITY CENTER 1.1 N, FL US",0.1685,GHCND:US1FLHB0153,METERS,-82.3497
15.5,2019-06-08,2026-04-08,27.9942,"SEFFNER 0.4 ESE, FL US",0.9884,GHCND:US1FLHB0154,METERS,-82.269
18.0,2020-05-15,2026-04-10,28.058998,"CARROLLWOOD 0.7 NNE, FL US",0.962,GHCND:US1FLHB0156,METERS,-82.48711
21.9,2020-07-31,2026-03-17,27.9665,"VALRICO 1.6 NNW, FL US",0.5092,GHCND:US1FLHB0160,METERS,-82.2548
25.6,2021-04-03,2026-04-10,27.9697,"BRANDON 2.8 N, FL US",0.9095,GHCND:US1FLHB0162,METERS,-82.296
25.6,2021-05-15,2023-01-10,27.88014,"BLOOMINGDALE 0.3 NW, FL US",0.9175,GHCND:US1FLHB0163,METERS,-82.26406
11.6,2021-06-29,2026-01-07,27.886941,"RIVERVIEW 2.1 WNW, FL US",0.7854,GHCND:US1FLHB0166,METERS,-82.34495
10.4,2021-06-21,2022-11-21,27.896442,"TAMPA 4.4 S, FL US",0.3738,GHCND:US1FLHB0167,METERS,-82.49573
11.6,2021-07-10,2026-04-10,28.070012,"CARROLLWOOD VILLAGE 2.3 W, FL US",0.9505,GHCND:US1FLHB0168,METERS,-82.558739
39.9,2021-12-01,2023-01-31,27.9833,"PLANT CITY 1.9 SW, FL US",0.8337,GHCND:US1FLHB0169,METERS,-82.1473
26.8,2022-09-24,2024-03-09,27.8175365,"RIVERVIEW 3.7 S, FL US",0.3621,GHCND:US1FLHB0172,METERS,-82.3089851
0.0,2022-05-13,2026-04-10,27.772357,"APOLLO BEACH 0.6 W, US",0.8894,GHCND:US1FLHB0173,METERS,-82.4171046
39.3,2022-05-28,2026-04-10,27.973,"PLANT CITY 3.9 SE, FL US",0.9738,GHCND:US1FLHB0177,METERS,-82.0771
1.5,2022-08-15,2025-10-01,27.708233,"RUSKIN 3.2 W, FL US",0.9904,GHCND:US1FLHB0178,METERS,-82.48065
24.4,2022-10-01,2024-10-14,28.05435,"THONOTOSASSA 2.3 ESE, FL US",0.9839,GHCND:US1FLHB0180,METERS,-82.26574
14.6,2022-10-16,2026-04-10,27.737448,"RUSKIN 3.9 ENE, FL US",1.0,GHCND:US1FLHB0181,METERS,-82.371593
37.8,2023-02-01,2026-04-09,27.994605,"PLANT CITY 1.2 SW, FL US",0.9158,GHCND:US1FLHB0182,METERS,-82.144176
16.2,2023-05-05,2026-04-08,27.724578,"SUN CITY CENTER 0.5 ENE, FL US",0.7047,GHCND:US1FLHB0183,METERS,-82.344519
25.0,2023-03-27,2024-12-02,27.9976,"SEFFNER 0.9 W, FL US",0.9238,GHCND:US1FLHB0184,METERS,-82.2896
15.2,2023-08-27,2024-08-06,28.135105,"TEMPLE TERRACE 7.8 NE, FL US",0.3179,GHCND:US1FLHB0186,METERS,-82.309901
18.0,2023-07-28,2026-04-09,27.7639884,"RUSKIN 6.2 ENE, FL US",0.8166,GHCND:US1FLHB0187,METERS,-82.3441468
21.0,2024-04-22,2025-05-11,28.1487268,"LUTZ 4.1 W, FL US",0.4052,GHCND:US1FLHB0189,METERS,-82.5289517
21.6,2024-05-15,2026-04-08,27.967508,"SEFFNER 2.1 S, FL US",0.6124,GHCND:US1FLHB0191,METERS,-82.276883
24.1,2007-11-01,2021-09-30,27.489849,"ZOLFO SPRINGS 0.6 ESE, FL US",0.0238,GHCND:US1FLHD0001,METERS,-81.786281
28.7,2014-08-17,2022-05-15,27.636864,"BOWLING GREEN 0.6 W, FL US",0.8455,GHCND:US1FLHD0003,METERS,-81.833733
34.7,2015-12-03,2019-12-23,27.566178,"WAUCHULA 2.4 NW, FL US",0.0715,GHCND:US1FLHD0005,METERS,-81.840828
29.6,2007-10-01,2026-04-10,27.342366,"LAKE PLACID 4.8 NW, FL US",0.9805,GHCND:US1FLHL0001,METERS,-81.42898
48.2,2007-09-23,2016-12-09,27.59295,"AVON PARK 0.8 E, FL US",0.9248,GHCND:US1FLHL0002,METERS,-81.490069
32.9,2007-09-26,2026-04-10,27.2877,"LAKE PLACID 1.1 WSW, FL US",0.9377,GHCND:US1FLHL0003,METERS,-81.3853
53.0,2007-09-28,2008-11-10,27.595779,"AVON PARK 0.9 ENE, FL US",0.9927,GHCND:US1FLHL0004,METERS,-81.489825
36.9,2007-10-11,2016-12-12,27.440696,"SEBRING 3.5 S, FL US",0.1218,GHCND:US1FLHL0008,METERS,-81.460344
50.9,2007-10-11,2020-06-06,27.60047,"AVON PARK 0.6 NW, FL US",0.6825,GHCND:US1FLHL0010,METERS,-81.509323
40.8,2007-10-27,2012-09-23,27.438805,"SEBRING 3.9 SSW, FL US",0.4599,GHCND:US1FLHL0011,METERS,-81.478812
25.9,2007-10-20,2026-04-06,27.405027,"SYLVAN SHORES 8.5 NE, FL US",0.9956,GHCND:US1FLHL0012,METERS,-81.246061
56.1,2007-11-09,2023-01-06,27.515983,"SEBRING 4.7 WNW, FL US",0.9789,GHCND:US1FLHL0013,METERS,-81.525033
53.9,2008-01-01,2014-06-18,27.484733,"SEBRING 3.1 W, FL US",0.8539,GHCND:US1FLHL0014,METERS,-81.503768
27.1,2008-02-27,2017-08-25,27.316927,"LAKE PLACID 3.9 WNW, FL US",0.9069,GHCND:US1FLHL0016,METERS,-81.429714
34.1,2008-04-02,2009-05-27,27.30679,"LAKE PLACID 3.8 W, FL US",0.6057,GHCND:US1FLHL0017,METERS,-81.43124
30.5,2008-07-15,2018-09-08,27.261353,"LAKE PLACID 2.5 S, FL US",0.9601,GHCND:US1FLHL0018,METERS,-81.371539
47.9,2008-08-21,2010-10-01,27.493489,"SEBRING 3.2 W, FL US",0.7798,GHCND:US1FLHL0019,METERS,-81.504839
45.7,2009-07-03,2014-05-28,27.528031,"SEBRING 5.4 WNW, FL US",0.823,GHCND:US1FLHL0021,METERS,-81.531383
14.9,2009-11-22,2011-03-08,27.335843,"LAKE PLACID 4.0 NE, FL US",0.9534,GHCND:US1FLHL0023,METERS,-81.321027
40.2,2010-01-20,2024-07-14,27.240577,"LAKE PLACID 4.6 SSW, FL US",0.2474,GHCND:US1FLHL0024,METERS,-81.410233
30.2,2010-08-13,2012-05-05,27.588307,"AVON PARK 2.2 E, FL US",0.356,GHCND:US1FLHL0025,METERS,-81.468409
27.7,2012-10-07,2017-06-16,27.437722,"SEBRING 4.1 SSE, FL US",0.1581,GHCND:US1FLHL0027,METERS,-81.422289
,2013-04-04,2014-03-29,27.645845413208,"AVON PARK 4.0 NNW, FL US",0.3778,GHCND:US1FLHL0028,,-81.5321502685547
48.2,2014-04-09,2025-08-19,27.499490737915,"SEBRING 2.8 WNW, FL US",0.9268,GHCND:US1FLHL0030,METERS,-81.4979629516602
32.6,2015-04-01,2026-04-02,27.533399,"SEBRING 3.7 NW, FL US",0.0831,GHCND:US1FLHL0032,METERS,-81.489564
32.6,2020-01-23,2026-04-10,27.4687,"SEBRING 2.7 SE, FL US",0.8335,GHCND:US1FLHL0038,METERS,-81.41699
41.8,2020-08-25,2021-09-22,27.457578,"SEBRING 3.1 SW, FL US",0.6294,GHCND:US1FLHL0042,METERS,-81.486959
26.2,2021-03-11,2026-04-10,27.4415,"SEBRING 7.9 ESE, FL US",0.9494,GHCND:US1FLHL0043,METERS,-81.33767
46.0,2008-01-19,2010-03-08,30.43865,"JASPER 5.5 S, FL US",0.7244,GHCND:US1FLHM0001,METERS,-82.94418
38.1,2008-08-21,2012-04-05,30.5641,"JENNINGS 5.8 WSW, FL US",0.9932,GHCND:US1FLHM0002,METERS,-83.194
40.8,2009-04-30,2011-06-24,30.541396,"JENNINGS 4.1 S, FL US",0.3855,GHCND:US1FLHM0003,METERS,-83.111216
24.4,2014-09-30,2018-02-27,30.5050684,"JENNINGS 6.7 S, FL US",0.1443,GHCND:US1FLHM0004,METERS,-83.099946
37.2,2018-03-28,2026-04-10,30.334,"WHITE SPRINGS 0.3 NW, FL US",0.9642,GHCND:US1FLHM0005,METERS,-82.762
43.9,2023-05-23,2024-01-16,30.5397472,"JENNINGS 4.2 S, FL US",0.9121,GHCND:US1FLHM0006,METERS,-83.110529
14.9,2007-09-23,2017-02-02,28.50283,"SPRING HILL 1.6 NNW, FL US",0.9468,GHCND:US1FLHN0001,METERS,-82.57426
20.1,2007-09-30,2015-09-18,28.501694,"SPRING HILL 1.5 NNE, FL US",0.8863,GHCND:US1FLHN0002,METERS,-82.549936
21.9,2008-02-14,2008-11-18,28.52644,"SOUTH BROOKSVILLE 1.7 WSW, FL US",0.4875,GHCND:US1FLHN0004,METERS,-82.429373
46.9,2007-10-02,2020-12-31,28.508178,"BROOKSVILLE 5.5 SE, FL US",0.6182,GHCND:US1FLHN0005,METERS,-82.319718
29.0,2007-11-09,2014-12-05,28.503393,"RIDGE MANOR 0.2 E, FL US",0.9563,GHCND:US1FLHN0006,METERS,-82.180093
25.0,2007-10-12,2026-04-09,28.44753,"SPRING HILL 3.3 SE, FL US",0.8252,GHCND:US1FLHN0007,METERS,-82.52357
7.9,2001-04-08,2026-04-09,28.558567,"WEEKI WACHEE 3.0 N, FL US",0.5612,GHCND:US1FLHN0008,METERS,-82.578133
25.9,1998-06-17,2017-12-16,28.547031,"HIGH POINT 0.2 E, FL US",0.4655,GHCND:US1FLHN0009,METERS,-82.523102
43.0,2008-03-28,2026-04-10,28.63956,"NORTH BROOKSVILLE 6.3 NE, FL US",0.5288,GHCND:US1FLHN0011,METERS,-82.33846
18.9,2008-05-13,2010-03-15,28.538182,"BROOKRIDGE 2.2 WSW, FL US",0.8318,GHCND:US1FLHN0013,METERS,-82.525339
4.9,2008-06-25,2026-04-09,28.495454,"SPRING HILL 2.4 NW, FL US",0.9546,GHCND:US1FLHN0014,METERS,-82.6018
21.9,2008-07-31,2009-06-20,28.568238,"BROOKRIDGE 1.4 NNW, FL US",0.3354,GHCND:US1FLHN0015,METERS,-82.503678
50.6,2008-08-03,2018-02-06,28.55534,"BROOKSVILLE 1.2 E, FL US",0.8365,GHCND:US1FLHN0017,METERS,-82.373572
26.8,2009-06-26,2015-12-18,28.529044,"BROOKRIDGE 2.3 SE, FL US",0.9189,GHCND:US1FLHN0019,METERS,-82.462938
30.5,2011-06-26,2014-07-17,28.584251,"BROOKSVILLE 2.2 NNE, FL US",0.627,GHCND:US1FLHN0020,METERS,-82.379228
,2013-04-17,2023-04-17,28.5228366851807,"BROOKSVILLE 3.9 SE, FL US",0.6666,GHCND:US1FLHN0022,,-82.3394317626953
11.6,2014-03-29,2026-04-09,28.61052,"WEEKI WACHEE 7.1 NNE, FL US",0.9076,GHCND:US1FLHN0024,METERS,-82.5351
14.6,2015-08-03,2026-04-10,28.471471,"SPRING HILL 2.4 WSW, FL US",0.9029,GHCND:US1FLHN0026,METERS,-82.599183
10.7,2017-01-01,2024-05-14,28.4931,"SPRING HILL 1.1 NW, FL US",0.6172,GHCND:US1FLHN0030,METERS,-82.57595
25.9,2017-06-15,2019-03-08,28.49951,"SOUTH BROOKSVILLE 2.9 SW, FL US",0.7785,GHCND:US1FLHN0031,METERS,-82.433351
18.6,2018-05-14,2020-02-07,28.5167,"SPRING HILL 3.3 NE, FL US",0.8819,GHCND:US1FLHN0032,METERS,-82.5246
11.9,2018-08-07,2024-04-25,28.48294,"SPRING HILL 2.1 W, FL US",0.9986,GHCND:US1FLHN0035,METERS,-82.59573
64.9,2018-09-06,2026-04-10,28.510558,"BROOKSVILLE 3.7 SE, FL US",0.996,GHCND:US1FLHN0039,METERS,-82.35894
8.5,1998-06-17,2025-02-27,28.53716,"WEEKI WACHEE 1.7 NNE, FL US",0.2057,GHCND:US1FLHN0040,METERS,-82.56522
23.2,2019-08-28,2026-04-10,28.46108,"SPRING HILL 3.6 ESE, FL US",0.4413,GHCND:US1FLHN0041,METERS,-82.508475
22.6,2020-06-14,2023-06-02,28.533382,"BROOKSVILLE 5.7 ESE, FL US",0.4686,GHCND:US1FLHN0043,METERS,-82.302958
13.1,2023-02-10,2024-01-11,28.445115,"SPRING HILL 3.2 SW, FL US",0.9494,GHCND:US1FLHN0045,METERS,-82.593655
31.4,2024-06-02,2026-04-10,28.568903,"BROOKSVILLE 7.1 W, FL US",0.3938,GHCND:US1FLHN0050,METERS,-82.50834
46.9,2007-12-29,2008-09-13,30.881276,"BONIFAY 6.8 N, FL US",0.4962,GHCND:US1FLHS0001,METERS,-85.664338
27.7,2008-03-01,2010-03-17,30.8853,"BONIFAY 7.1 N, FL US",0.5716,GHCND:US1FLHS0002,METERS,-85.7066
37.2,2022-09-14,2026-04-06,30.805389,"BONIFAY 1.9 NE, FL US",0.3689,GHCND:US1FLHS0005,METERS,-85.661797
7.3,2008-08-07,2009-07-11,26.460218,"CLEWISTON 21.1 SSW, FL US",0.8584,GHCND:US1FLHY0002,METERS,-81.033904
4.9,2009-06-06,2025-08-15,26.763904,"LA BELLE 2.3 WNW, FL US",0.9797,GHCND:US1FLHY0003,METERS,-81.474755
5.5,2009-12-05,2010-03-30,26.32925,"CLEWISTON 29.5 S, FL US",1.0,GHCND:US1FLHY0004,METERS,-80.993739
6.7,2010-11-09,2023-12-17,26.663883,"CLEWISTON 11.2 WSW, FL US",0.6046,GHCND:US1FLHY0005,METERS,-81.089983
7.3,2016-09-26,2017-08-13,26.7090797424316,"CLEWISTON 17.2 W, FL US",0.8199,GHCND:US1FLHY0006,METERS,-81.2142181396484
7.3,2018-04-02,2023-12-26,26.75822,"LABELLE 0.3 WNW, FL US",0.725,GHCND:US1FLHY0008,METERS,-81.44319
8.2,2018-11-14,2020-09-09,26.76665,"LABELLE 1.5 ENE, FL US",0.8033,GHCND:US1FLHY0009,METERS,-81.41597
5.8,2021-01-12,2026-03-30,26.76724,"LABELLE 1.5 ENE, FL US",0.8009,GHCND:US1FLHY0011,METERS,-81.415913
7.6,2021-05-12,2024-02-20,26.618331,"CLEWISTON 13.8 SW, FL US",0.7783,GHCND:US1FLHY0012,METERS,-81.104726
8.8,2024-02-22,2026-04-07,26.651287,"CLEWISTON 13.4 WSW, FL US",0.5773,GHCND:US1FLHY0013,METERS,-81.124609
11.9,2007-11-13,2008-12-19,27.806351,"SEBASTIAN 1.4 NNE, FL US",0.33,GHCND:US1FLIR0001,METERS,-80.473439
9.1,2007-11-09,2014-07-07,27.62222,"VERO BEACH SOUTH 10.0 W, FL US",0.4007,GHCND:US1FLIR0002,METERS,-80.57694
13.1,2008-10-19,2017-04-23,27.8003900256881,"SEBASTIAN 1.1 NE, FL US",0.7591,GHCND:US1FLIR0004,METERS,-80.4705834388733
6.1,2008-11-01,2023-01-22,27.643772,"VERO BEACH 2.4 W, FL US",0.9394,GHCND:US1FLIR0006,METERS,-80.433882
3.0,2008-11-04,2010-11-28,27.622772,"VERO BEACH 3.1 ESE, FL US",0.9391,GHCND:US1FLIR0007,METERS,-80.351485
7.0,2008-11-10,2015-09-04,27.762827,"VERO BEACH 11.4 NW, FL US",0.7735,GHCND:US1FLIR0008,METERS,-80.544751
0.6,2008-12-11,2012-08-28,27.596262,"VERO BEACH 4.3 SE, FL US",0.1253,GHCND:US1FLIR0009,METERS,-80.372559
1.2,2008-11-17,2015-07-01,27.657831,"VERO BEACH 2.1 ENE, FL US",0.3292,GHCND:US1FLIR0013,METERS,-80.362033
11.9,2008-10-31,2022-02-15,27.641405,"VERO BEACH 1.5 WSW, FL US",0.7053,GHCND:US1FLIR0015,METERS,-80.417429
11.9,2008-12-03,2011-08-14,27.79825,"SEBASTIAN 1.0 NW, FL US",0.6193,GHCND:US1FLIR0018,METERS,-80.490237
7.9,2008-10-29,2025-03-13,27.759845,"SEBASTIAN 2.0 SSW, FL US",0.8329,GHCND:US1FLIR0019,METERS,-80.492657
6.1,2008-11-17,2019-12-26,27.763426,"SEBASTIAN 1.7 SSE, FL US",0.9882,GHCND:US1FLIR0022,METERS,-80.474196
5.8,2008-11-27,2026-04-10,27.642899,"VERO BEACH 3.4 W, FL US",0.9343,GHCND:US1FLIR0024,METERS,-80.44938
5.8,2009-02-25,2026-04-10,27.59959,"VERO BEACH 3.5 SSW, FL US",0.9426,GHCND:US1FLIR0026,METERS,-80.416643
6.4,2009-02-14,2026-04-10,27.610172,"VERO BEACH 2.5 S, FL US",0.8939,GHCND:US1FLIR0027,METERS,-80.39295
5.8,2009-02-26,2010-06-10,27.681328,"VERO BEACH 3.5 NW, FL US",0.4489,GHCND:US1FLIR0028,METERS,-80.436171
5.8,2009-02-12,2021-06-08,27.5598,"VERO BEACH 6.0 SSE, FL US",0.9036,GHCND:US1FLIR0029,METERS,-80.388936
11.0,2010-08-24,2018-04-30,27.572764,"VERO BEACH SOUTH 3.4 SSW, FL US",0.9786,GHCND:US1FLIR0031,METERS,-80.439757
5.8,2010-08-06,2015-01-20,27.564604,"VERO BEACH 5.2 S, FL US",0.6372,GHCND:US1FLIR0032,METERS,-80.38802
5.8,2012-03-13,2014-06-17,27.604555,"VERO BEACH 3.8 SW, FL US",0.1596,GHCND:US1FLIR0034,METERS,-80.434877
5.5,2012-05-05,2013-06-27,27.7504234313965,"SEBASTIAN 3.3 SW, FL US",0.5442,GHCND:US1FLIR0035,METERS,-80.5142059326172
5.5,2013-02-19,2022-10-16,27.640879,"VERO BEACH 5.3 W, FL US",0.8585,GHCND:US1FLIR0036,METERS,-80.480391
7.0,2013-09-17,2017-06-07,27.635398,"VERO BEACH SOUTH 1.5 NNW, FL US",0.125,GHCND:US1FLIR0037,METERS,-80.423047
6.4,2014-08-08,2015-11-19,27.584201,"VERO BEACH 4.9 SSW, FL US",0.6588,GHCND:US1FLIR0039,METERS,-80.435075
6.4,2017-03-06,2018-09-01,27.653135,"VERO BEACH 4.3 W, FL US",0.5376,GHCND:US1FLIR0040,METERS,-80.463728
2.1,2017-05-11,2026-04-10,27.66263,"VERO BEACH 2.1 NE, FL US",0.1305,GHCND:US1FLIR0041,METERS,-80.36635
7.3,2017-10-08,2020-10-10,27.74014,"FELLSMERE 1.8 S, FL US",0.949,GHCND:US1FLIR0042,METERS,-80.60027
7.9,2018-03-30,2020-07-23,27.7935,"SEBASTIAN 0.7 NE, FL US",0.863,GHCND:US1FLIR0046,METERS,-80.471
4.9,2018-05-22,2026-04-10,27.5591,"VERO BEACH 6.0 S, FL US",0.8379,GHCND:US1FLIR0047,METERS,-80.3935
7.3,2019-10-23,2026-04-10,27.71092,"VERO BEACH 5.4 NNW, FL US",0.7633,GHCND:US1FLIR0048,METERS,-80.44274
5.8,2020-05-30,2026-04-10,27.630637,"VERO BEACH SOUTH 2.4 WNW, FL US",0.9818,GHCND:US1FLIR0050,METERS,-80.449648
10.4,2020-10-11,2026-04-10,27.8208047,"FELLSMERE 3.8 N, FL US",0.8954,GHCND:US1FLIR0051,METERS,-80.5931392
1.2,2020-12-08,2023-06-30,27.737425,"WABASSO 1.2 SE, FL US",0.3711,GHCND:US1FLIR0052,METERS,-80.424731
6.4,2021-12-01,2026-04-09,27.764554,"VERO BEACH 11.9 NW, FL US",0.9673,GHCND:US1FLIR0054,METERS,-80.53431
6.7,2022-08-08,2025-10-09,27.64077,"VERO BEACH 2.6 W, FL US",0.1424,GHCND:US1FLIR0055,METERS,-80.43559
6.4,2023-04-04,2024-04-22,27.783388,"SEBASTIAN 0.3 SSW, FL US",0.3117,GHCND:US1FLIR0057,METERS,-80.483264
8.2,2023-09-09,2026-04-10,27.7859577,"FELLSMERE 1.4 N, FL US",0.9397,GHCND:US1FLIR0059,METERS,-80.5932202
6.4,2023-10-03,2026-04-10,27.80153,"SEBASTIAN 1.2 NNW, FL US",0.9034,GHCND:US1FLIR0060,METERS,-80.4913
10.7,2024-02-16,2026-03-31,27.65933,"VERO BEACH 3.6 WNW, FL US",0.6232,GHCND:US1FLIR0061,METERS,-80.4515
6.4,2024-07-08,2026-04-09,27.7371091,"FELLSMERE 4.3 ESE, FL US",0.9329,GHCND:US1FLIR0063,METERS,-80.5346294
6.7,2024-08-11,2026-04-10,27.566564,"FLORIDA RIDGE 1.3 SW, FL US",0.9688,GHCND:US1FLIR0064,METERS,-80.402794
75.9,2007-10-06,2009-08-13,30.5404567,"MONTICELLO 0.2 ESE, FL US",0.7389,GHCND:US1FLJF0001,METERS,-83.86768
10.1,2008-02-01,2019-10-19,30.345,"WACISSA 1.1 SW, FL US",0.7964,GHCND:US1FLJF0003,METERS,-83.99775
38.4,2008-02-05,2013-07-09,30.627103,"MONTICELLO 6.8 NNE, FL US",0.1675,GHCND:US1FLJF0004,METERS,-83.811969
54.9,2008-02-19,2018-02-07,30.524216,"MONTICELLO 3.6 WSW, FL US",0.7729,GHCND:US1FLJF0005,METERS,-83.926974
11.3,2010-04-21,2023-02-16,30.29251,"LAMONT 7.7 SW, FL US",0.9906,GHCND:US1FLJF0007,METERS,-83.8973
47.9,2014-09-30,2026-04-10,30.5576877593994,"MONTICELLO 4.3 ENE, FL US",0.9991,GHCND:US1FLJF0009,METERS,-83.8015670776367
64.6,2016-07-31,2026-04-10,30.5255,"MONTICELLO 2.9 WSW, FL US",0.93,GHCND:US1FLJF0010,METERS,-83.91623
61.3,2019-06-26,2020-01-27,30.466333,"MONTICELLO 5.2 S, FL US",0.9074,GHCND:US1FLJF0013,METERS,-83.8795
41.5,2010-11-17,2026-04-10,30.6871579,"ALFORD 0.6 SSE, FL US",0.9653,GHCND:US1FLJK0002,METERS,-85.3929456
36.0,2011-07-06,2020-12-03,30.773695,"MARIANNA 3.9 E, FL US",0.8444,GHCND:US1FLJK0003,METERS,-85.174727
30.5,2014-07-29,2014-12-11,30.686036,"MARIANNA 8.3 SE, FL US",0.9706,GHCND:US1FLJK0005,METERS,-85.146061
43.0,2018-11-02,2026-04-09,30.78471,"MARIANNA 0.8 NNE, FL US",0.4779,GHCND:US1FLJK0006,METERS,-85.23235
44.5,2024-03-02,2026-04-10,30.8593,"GRACEVILLE 7.0 S, FL US",0.9948,GHCND:US1FLJK0007,METERS,-85.5199
29.3,2007-10-01,2026-03-16,30.33,"TELOGIA 2.5 SE, FL US",0.5825,GHCND:US1FLLB0001,METERS,-84.78
34.1,2010-01-01,2021-06-20,30.351761,"HOSFORD 2.7 SW, FL US",0.9518,GHCND:US1FLLB0003,METERS,-84.8173939
3.0,2007-10-13,2009-08-30,26.669308,"FORT MYERS 3.7 NE, FL US",0.9869,GHCND:US1FLLE0001,METERS,-81.822444
7.0,2007-09-30,2008-09-27,26.689952,"NORTH FORT MYERS 1.4 SW, FL US",0.9945,GHCND:US1FLLE0003,METERS,-81.908281
0.3,2007-10-02,2012-01-31,26.58365,"CAPE CORAL 1.7 NE, FL US",0.2868,GHCND:US1FLLE0004,METERS,-81.93481
11.0,1998-06-17,2016-10-06,26.576709,"LEHIGH ACRES 4.2 WSW, FL US",0.453,GHCND:US1FLLE0005,METERS,-81.694541
13.1,2008-01-20,2026-04-10,26.658553,"BUCKINGHAM 1.7 SE, FL US",0.9761,GHCND:US1FLLE0006,METERS,-81.713763
11.9,2007-10-02,2021-02-14,26.396944,"BONITA SPRINGS 4.7 NW, FL US",0.32,GHCND:US1FLLE0010,METERS,-81.828056
17.1,2007-10-27,2017-02-20,26.748534,"NORTH FORT MYERS 3.8 NE, FL US",0.8675,GHCND:US1FLLE0011,METERS,-81.854842
1.5,2007-10-15,2016-08-04,26.589146,"ST. JAMES CITY 6.4 NNW, FL US",0.9913,GHCND:US1FLLE0012,METERS,-82.10893
4.0,2007-10-31,2015-06-28,26.558071,"CAPE CORAL 5.1 WSW, FL US",0.2655,GHCND:US1FLLE0013,METERS,-82.0327
2.7,2008-01-26,2018-07-04,26.504429,"CAPTIVA 1.2 SSW, FL US",0.3221,GHCND:US1FLLE0015,METERS,-82.188605
1.2,2008-04-17,2011-01-19,26.5174,"CYPRESS LAKE 1.8 SW, FL US",0.3472,GHCND:US1FLLE0017,METERS,-81.917
0.0,2008-12-28,2024-08-01,26.494623,"SAINT JAMES CITY 0.4 SSE, FL US",0.9531,GHCND:US1FLLE0022,METERS,-82.077372
4.0,2008-09-19,2014-09-22,26.697661,"CAPE CORAL 3.9 NE, FL US",0.728,GHCND:US1FLLE0023,METERS,-81.934983
0.9,2008-09-14,2012-05-13,26.614803,"BOKEELIA 6.6 SSE, FL US",0.5575,GHCND:US1FLLE0024,METERS,-82.123647
1.8,2009-06-29,2016-09-23,26.635786,"BOKEELIA 5.2 SE, FL US",0.8514,GHCND:US1FLLE0027,METERS,-82.127287
1.2,2010-02-04,2020-07-10,26.527301,"CYPRESS LAKE 0.7 S, FL US",0.421,GHCND:US1FLLE0029,METERS,-81.900381
4.0,2010-02-22,2014-05-03,26.47263889,"FORT MYERS 7.4 ESE, FL US",0.686,GHCND:US1FLLE0030,METERS,-81.8155
3.7,2012-09-14,2026-04-10,26.642261505127,"FORT MYERS 0.8 N, FL US",0.8931,GHCND:US1FLLE0037,METERS,-81.8488388061523
6.1,2013-11-07,2019-01-28,26.582677,"FORT MYERS 4.5 SE, FL US",0.9544,GHCND:US1FLLE0039,METERS,-81.802369
4.0,2013-10-01,2019-04-29,26.375011,"BONITA SPRINGS 3.1 NW, FL US",0.4914,GHCND:US1FLLE0041,METERS,-81.816683
2.1,2014-12-02,2018-05-02,26.59522,"CAPE CORAL 5.1 SE, FL US",0.1386,GHCND:US1FLLE0046,METERS,-81.930129
3.0,2015-01-01,2017-09-07,26.600233,"CAPE CORAL 4.0 SE, FL US",0.9715,GHCND:US1FLLE0047,METERS,-81.947266
2.7,2015-07-06,2016-10-07,26.655888,"NORTH FORT MYERS 3.7 SSW, FL US",0.7957,GHCND:US1FLLE0049,METERS,-81.91349
3.0,2016-08-11,2019-06-12,26.573158,"WHISKEY CREEK 0.3 ENE, FL US",0.3813,GHCND:US1FLLE0052,METERS,-81.886362
4.3,2016-10-23,2018-07-04,26.678935,"CAPE CORAL 2.9 N, FL US",0.9565,GHCND:US1FLLE0053,METERS,-81.996131
4.0,2017-04-30,2026-04-09,26.60641,"FORT MYERS 2.3 SW, FL US",0.955,GHCND:US1FLLE0055,METERS,-81.87727
7.6,2017-05-05,2019-06-19,26.595002,"FORT MYERS 7.0 ESE, FL US",0.9085,GHCND:US1FLLE0056,METERS,-81.744495
2.1,2017-07-02,2026-04-10,26.56737,"CAPE CORAL 4.9 S, FL US",0.8197,GHCND:US1FLLE0057,METERS,-81.99795
2.1,2017-09-30,2021-10-13,26.48553,"FOREST ISLAND PARK 0.9 ESE, FL US",0.5905,GHCND:US1FLLE0058,METERS,-81.84783
2.1,2018-07-05,2022-09-27,26.691734,"CAPE CORAL 3.9 NNW, FL US",0.9942,GHCND:US1FLLE0059,METERS,-82.012703
0.9,2018-11-18,2026-04-09,26.593662,"CAPE CORAL 5.0 SE, FL US",0.4348,GHCND:US1FLLE0062,METERS,-81.933064
4.9,2019-07-04,2026-04-07,26.530387,"CYPRESS LAKE 0.5 SSW, FL US",0.7296,GHCND:US1FLLE0065,METERS,-81.90266
8.5,2020-06-22,2026-04-10,26.550393,"LEHIGH ACRES 3.8 SSW, FL US",0.9571,GHCND:US1FLLE0068,METERS,-81.650833
2.7,2021-08-01,2026-04-10,26.637205,"FORT MYERS 1.7 WNW, FL US",0.9994,GHCND:US1FLLE0072,METERS,-81.877153
0.3,2022-05-29,2025-07-08,26.6839801,"NORTH FORT MYERS 2.8 ESE, FL US",0.8364,GHCND:US1FLLE0074,METERS,-81.8546963
4.6,2021-11-21,2026-04-08,26.4435404,"ESTERO 0.5 WNW, FL US",0.2981,GHCND:US1FLLE0075,METERS,-81.8179002
2.4,2022-09-01,2026-04-10,26.71693,"FORT MYERS 10.0 NE, FL US",0.9879,GHCND:US1FLLE0076,METERS,-81.7211
2.1,2022-12-16,2026-04-08,26.62325,"CAPE CORAL 3.1 ESE, FL US",0.3686,GHCND:US1FLLE0078,METERS,-81.94973
1.5,2023-07-28,2026-04-08,26.526931,"CYPRESS LAKE 1.2 SE, FL US",0.9432,GHCND:US1FLLE0079,METERS,-81.88424
1.8,2024-05-26,2026-04-10,26.6479,"CAPE CORAL 2.2 WNW, FL US",0.9358,GHCND:US1FLLE0080,METERS,-82.0313
49.1,2007-10-16,2013-05-04,28.843879,"EUSTIS 1.2 SE, FL US",0.5394,GHCND:US1FLLK0002,METERS,-81.669975
34.1,2007-08-16,2026-04-09,28.565,"GROVELAND 1.7 E, FL US",0.993,GHCND:US1FLLK0003,METERS,-81.824
27.1,2008-01-17,2013-07-12,28.848266,"BASSVILLE PARK 1.0 NE, FL US",0.743,GHCND:US1FLLK0004,METERS,-81.755616
21.9,2008-10-10,2010-06-24,28.926368,"LADY LAKE 1.2 W, FL US",0.8636,GHCND:US1FLLK0006,METERS,-81.947937
21.3,2009-06-01,2013-08-07,28.831656,"SORRENTO 2.2 NE, FL US",0.068,GHCND:US1FLLK0007,METERS,-81.535087
54.9,2009-07-21,2012-06-25,28.591991,"MINNEOLA 1.8 NW, FL US",0.127,GHCND:US1FLLK0009,METERS,-81.769312
45.1,2009-07-24,2019-01-14,28.547209,"CLERMONT 0.4 SW, FL US",0.8475,GHCND:US1FLLK0010,METERS,-81.762786
29.9,2001-02-21,2015-08-12,28.85752,"LAKE GRIFFIN STATE PARK, FL US",0.3623,GHCND:US1FLLK0012,METERS,-81.90255
48.8,2011-01-03,2013-06-28,28.552645,"CLERMONT 3.6 E, FL US",0.859,GHCND:US1FLLK0014,METERS,-81.699089
24.1,2012-01-24,2022-05-19,28.892491,"LADY LAKE 2.5 SSW, FL US",0.6137,GHCND:US1FLLK0016,METERS,-81.9404069
29.6,2013-08-16,2025-01-21,28.736608505249,"LEESBURG 5.4 SSE, FL US",0.3505,GHCND:US1FLLK0017,METERS,-81.8464813232422
35.7,2014-03-26,2014-08-15,28.5708427429199,"CLERMONT 3.8 ENE, FL US",0.7972,GHCND:US1FLLK0018,METERS,-81.6997299194336
27.1,2014-05-01,2026-04-10,28.92,"LADY LAKE 1.2 ESE, FL US",0.9961,GHCND:US1FLLK0021,METERS,-81.9116
27.1,2015-05-12,2025-12-14,28.954757,"LADY LAKE 2.0 NNW, FL US",0.4822,GHCND:US1FLLK0022,METERS,-81.93905
24.7,2016-05-10,2026-04-10,28.901711,"LEESBURG 9.9 NE, FL US",0.6268,GHCND:US1FLLK0023,METERS,-81.757617
30.2,2016-06-19,2021-08-05,29.039698,"ALTOONA 5.3 NNE, FL US",0.3735,GHCND:US1FLLK0024,METERS,-81.627135
26.8,2016-06-28,2021-11-20,28.7109184265137,"ASTATULA 1.0 E, FL US",0.8525,GHCND:US1FLLK0025,METERS,-81.7188262939453
43.0,2017-01-23,2026-04-04,28.542227,"OAKLAND 3.4 WSW, FL US",0.7874,GHCND:US1FLLK0027,METERS,-81.683054
37.2,2017-03-12,2026-04-09,28.8679,"FRUITLAND PARK 0.8 NNW, FL US",0.9388,GHCND:US1FLLK0028,METERS,-81.9152
23.2,2017-04-04,2026-04-08,28.836163,"LEESBURG 2.7 NW, FL US",0.9769,GHCND:US1FLLK0030,METERS,-81.913656
26.2,2017-06-06,2026-04-10,28.849946,"LADY LAKE 5.5 S, FL US",0.6939,GHCND:US1FLLK0031,METERS,-81.944595
29.9,2019-01-15,2026-04-10,28.573674,"CLERMONT 2.1 NW, FL US",0.7779,GHCND:US1FLLK0036,METERS,-81.782141
18.9,2020-04-01,2020-11-16,28.9789,"PAISLEY 1.1 ESE, FL US",0.7217,GHCND:US1FLLK0039,METERS,-81.5248
29.3,2020-12-08,2026-04-10,28.72839,"LEESBURG 5.5 S, FL US",0.6328,GHCND:US1FLLK0041,METERS,-81.887768
56.4,2021-04-11,2026-04-10,28.493015,"CLERMONT 4.1 S, FL US",0.4759,GHCND:US1FLLK0042,METERS,-81.767719
43.6,2021-08-30,2026-04-10,28.91174,"LADY LAKE 4.0 ESE, FL US",0.9721,GHCND:US1FLLK0043,METERS,-81.866116
14.3,2021-09-19,2026-04-10,28.9847,"PAISLEY 2.4 E, FL US",0.6324,GHCND:US1FLLK0044,METERS,-81.5019
29.3,2021-08-06,2023-12-21,28.973562,"ALTOONA 1.2 ENE, FL US",0.3329,GHCND:US1FLLK0045,METERS,-81.630781
34.4,2022-04-15,2026-04-10,28.4575,"CLERMONT 6.5 S, FL US",0.8641,GHCND:US1FLLK0046,METERS,-81.7474
20.1,2022-06-25,2026-04-09,28.799571,"TAVARES 0.4 SSE, FL US",0.2318,GHCND:US1FLLK0048,METERS,-81.7331
34.4,2022-07-02,2026-04-07,28.388999,"CLERMONT 12.7 SSE, FL US",0.1599,GHCND:US1FLLK0049,METERS,-81.659383
31.4,2022-06-01,2022-11-15,28.80331,"MOUNT DORA 1.5 E, FL US",1.0,GHCND:US1FLLK0050,METERS,-81.61789
31.1,2022-07-08,2025-03-14,28.541634,"CLERMONT 1.0 SE, FL US",0.737,GHCND:US1FLLK0051,METERS,-81.745203
46.3,2022-07-09,2026-04-10,28.60883,"GROVELAND 5.1 NE, FL US",0.9716,GHCND:US1FLLK0052,METERS,-81.785597
23.5,2023-01-26,2026-04-10,28.814254,"TAVARES 2.4 WNW, FL US",0.9795,GHCND:US1FLLK0054,METERS,-81.773639
26.5,2023-03-14,2026-04-10,28.7732,"LEESBURG 4.9 WSW, FL US",0.9093,GHCND:US1FLLK0056,METERS,-81.9527
39.9,2023-04-26,2026-04-10,28.62493,"CLERMONT 6.1 NNE, FL US",0.7216,GHCND:US1FLLK0057,METERS,-81.70331
31.4,2007-08-30,2013-03-04,30.530936,"TALLAHASSEE 7.2 NW, FL US",0.2254,GHCND:US1FLLN0001,METERS,-84.365576
26.5,2007-09-19,2015-08-31,30.422044,"TALLAHASSEE 2.7 SW, FL US",0.3248,GHCND:US1FLLN0002,METERS,-84.322718
36.9,2007-09-24,2015-09-05,30.48122,"TALLAHASSEE 2.7 NE, FL US",0.053,GHCND:US1FLLN0003,METERS,-84.24659
29.9,1998-06-17,2024-09-15,30.393828,"TALLAHASSEE 5.7 SE, FL US",0.5606,GHCND:US1FLLN0004,METERS,-84.220022
18.9,2007-10-31,2017-06-04,30.367,"TALLAHASSEE 10.8 SE, FL US",0.5698,GHCND:US1FLLN0005,METERS,-84.133
61.0,2007-10-01,2008-11-18,30.47663,"TALLAHASSEE 2.6 WNW, FL US",0.9494,GHCND:US1FLLN0008,METERS,-84.318168
40.8,2007-10-01,2009-06-01,30.48562,"TALLAHASSEE 2.7 NE, FL US",0.9246,GHCND:US1FLLN0009,METERS,-84.25083
52.1,2007-10-05,2026-04-10,30.446293,"TALLAHASSEE 1.3 SW, FL US",0.9212,GHCND:US1FLLN0010,METERS,-84.29968
68.0,2021-01-22,2026-04-08,30.571551,"TALLAHASSEE 8.0 N, FL US",0.9086,GHCND:US1FLLN0011,METERS,-84.256461
57.0,2007-10-19,2010-05-03,30.475719,"TALLAHASSEE 1.8 NW, FL US",0.9601,GHCND:US1FLLN0012,METERS,-84.301892
29.0,2008-01-28,2013-02-26,30.46083,"TALLAHASSEE 6.1 E, FL US",0.3393,GHCND:US1FLLN0015,METERS,-84.17883
60.0,2008-02-01,2019-02-19,30.519525,"TALLAHASSEE 4.3 N, FL US",0.1489,GHCND:US1FLLN0017,METERS,-84.278754
45.1,1998-06-17,2026-04-10,30.420175,"MIDWAY 6.9 SW, FL US",0.5342,GHCND:US1FLLN0018,METERS,-84.54375
47.9,2008-02-18,2012-05-30,30.534824,"TALLAHASSEE 5.7 NNE, FL US",0.2142,GHCND:US1FLLN0020,METERS,-84.249716
43.0,2008-01-01,2014-01-01,30.575588,"TALLAHASSEE 8.3 N, FL US",0.9995,GHCND:US1FLLN0022,METERS,-84.255838
50.9,2008-02-05,2017-04-04,30.449514,"TALLAHASSEE 0.6 SE, FL US",0.8895,GHCND:US1FLLN0023,METERS,-84.275351
29.9,2007-01-01,2026-04-10,30.508166,"TALLAHASSEE 3.5 N, FL US",0.9277,GHCND:US1FLLN0025,METERS,-84.283457
49.7,2008-02-05,2009-05-28,30.496798,"TALLAHASSEE 2.8 N, FL US",0.2985,GHCND:US1FLLN0026,METERS,-84.284695
48.2,2009-09-01,2011-03-14,30.521113,"TALLAHASSEE 4.5 N, FL US",0.9536,GHCND:US1FLLN0027,METERS,-84.291254
24.1,2008-02-24,2020-05-23,30.413989,"TALLAHASSEE 3.3 SSE, FL US",0.934,GHCND:US1FLLN0028,METERS,-84.256817
36.3,2008-02-24,2020-01-20,30.49349,"TALLAHASSEE 3.1 NW, FL US",0.9166,GHCND:US1FLLN0029,METERS,-84.31074
43.9,2008-02-20,2020-08-25,30.603299,"TALLAHASSEE 14.2 NE, FL US",0.9875,GHCND:US1FLLN0031,METERS,-84.112587
21.9,2008-07-31,2015-11-14,30.389044,"TALLAHASSEE 6.1 SE, FL US",0.6158,GHCND:US1FLLN0033,METERS,-84.215866
37.2,2008-08-05,2026-04-07,30.594969,"TALLAHASSEE 9.6 N, FL US",0.4889,GHCND:US1FLLN0034,METERS,-84.267948
52.1,2008-08-27,2011-04-05,30.56063,"TALLAHASSEE 11.3 NE, FL US",0.9086,GHCND:US1FLLN0035,METERS,-84.134992
29.0,2008-10-01,2023-06-01,30.465374,"TALLAHASSEE 3.6 W, FL US",0.1574,GHCND:US1FLLN0037,METERS,-84.341516
67.1,2008-10-05,2009-12-03,30.51372,"TALLAHASSEE 5.8 NE, FL US",0.2941,GHCND:US1FLLN0039,METERS,-84.209409
49.1,2009-02-19,2025-07-06,30.611569,"TALLAHASSEE 10.8 N, FL US",0.7813,GHCND:US1FLLN0041,METERS,-84.256832
